country,state,city,station,last_update,latitude,longitude,pollutant_id,pollutant_min,pollutant_max,pollutant_avg
India,Andhra_Pradesh,Visakhapatnam,"GVM Corporation, Visakhapatnam - APPCB",04-10-2025,17.72,83.3,NO2,42,70,54
India,Arunachal_Pradesh,Naharlagun,"Naharlagun, Naharlagun - APSPCB",02-04-2024,27.103358,93.679645,NO2,4,5,5
India,Assam,Byrnihat,"Central Academy for SFS, Byrnihat - PCBA",15-02-2025,26.071318,91.87488,PM2.5,92,494,283
India,Andhra_Pradesh,Tirumala,"Toll Gate, Tirumala - APPCB (Formerly known as Tirumala, Tirupati - APPCB)",10-11-2024,13.67,79.35,PM2.5,25,60,39
India,Andhra_Pradesh,Tirumala,"Toll Gate, Tirumala - APPCB (Formerly known as Tirumala, Tirupati - APPCB)",20-02-2024,13.67,79.35,NO2,13,19,16
India,Andhra_Pradesh,Tirupati,"Vaikuntapuram, Tirupati - APPCB",17-08-2024,13.615387,79.40923,NO2,NA,NA,NA
India,Andhra_Pradesh,Vijayawada,"Rajiv Gandhi Park, Vijayawada - APPCB",09-04-2025,16.509717,80.612222,NH3,2,5,3
India,Andhra_Pradesh,Vijayawada,"Rajiv Gandhi Park, Vijayawada - APPCB",27-12-2025,16.509717,80.612222,SO2,10,13,11
India,Andhra_Pradesh,Vijayawada,"Rajiv Gandhi Park, Vijayawada - APPCB",11-05-2024,16.509717,80.612222,OZONE,6,38,8
India,Andhra_Pradesh,Anantapur,"Gulzarpet, Anantapur - APPCB",15-12-2025,14.675886,77.593027,PM10,44,62,54
India,Andhra_Pradesh,Chittoor,"Gangineni Cheruvu, Chittoor - APPCB",11-06-2024,13.20488,79.097889,PM10,33,125,72
India,Andaman and Nicobar,Sri Vijaya Puram,"Police Line, Sri Vijaya Puram - ANPCC",03-08-2025,11.654054,92.734055,PM10,1,202,36
India,Andaman and Nicobar,Sri Vijaya Puram,"Police Line, Sri Vijaya Puram - ANPCC",24-05-2024,11.654054,92.734055,NH3,1,3,1
India,Andhra_Pradesh,Vijayawada,"HB Colony, Vijayawada - APPCB",13-01-2024,16.536107,80.594233,CO,18,36,18
India,Andhra_Pradesh,Vijayawada,"HB Colony, Vijayawada - APPCB",05-03-2025,16.536107,80.594233,OZONE,2,33,6
India,Andhra_Pradesh,Rajamahendravaram,"Anand Kala Kshetram, Rajamahendravaram - APPCB",24-11-2024,16.9872867,81.7363176,NH3,2,12,5
India,Andhra_Pradesh,Vijayawada,"HB Colony, Vijayawada - APPCB",02-03-2024,16.536107,80.594233,PM2.5,46,374,90
India,Andhra_Pradesh,Chittoor,"Gangineni Cheruvu, Chittoor - APPCB",24-03-2025,13.20488,79.097889,SO2,3,6,5
India,Andhra_Pradesh,Kadapa,"Yerramukkapalli, Kadapa - APPCB",27-10-2024,14.465052,78.824187,SO2,14,16,15
India,Assam,Nagaon,"Christianpatty, Nagaon - PCBA",08-02-2025,26.349082,92.68449,SO2,NA,NA,NA
India,Assam,Nagaon,"Christianpatty, Nagaon - PCBA",25-12-2024,26.349082,92.68449,OZONE,20,57,34
India,Assam,Nalbari,"Bata Chowk, Nalbari - PCBA",19-08-2025,26.446912,91.439057,PM2.5,42,314,187
India,Assam,Nalbari,"Bata Chowk, Nalbari - PCBA",14-11-2024,26.446912,91.439057,PM10,40,250,144
India,Assam,Nalbari,"Bata Chowk, Nalbari - PCBA",27-05-2025,26.446912,91.439057,NH3,1,1,1
India,Assam,Silchar,"Tarapur, Silchar - PCBA",25-11-2025,24.82827,92.79525,CO,26,39,36
India,Assam,Sivasagar,"Girls College, Sivasagar - PCBA",21-05-2024,26.987634,94.636574,NH3,3,5,4
India,Assam,Sivasagar,"Girls College, Sivasagar - PCBA",11-07-2025,26.987634,94.636574,OZONE,1,7,2
India,Bihar,Araria,"Kharahiya Basti, Araria - BSPCB",05-12-2025,26.146529,87.454184,PM2.5,27,140,80
India,Bihar,Araria,"Kharahiya Basti, Araria - BSPCB",10-02-2024,26.146529,87.454184,NH3,10,11,11
India,Bihar,Araria,"Kharahiya Basti, Araria - BSPCB",18-12-2025,26.146529,87.454184,OZONE,9,10,10
India,Bihar,Arrah,"New DM Office, Arrah - BSPCB",05-11-2025,25.5626095,84.663264,NO2,6,10,7
India,Bihar,Arrah,"New DM Office, Arrah - BSPCB",17-10-2024,25.5626095,84.663264,SO2,8,10,9
India,Bihar,Arrah,"New DM Office, Arrah - BSPCB",18-08-2024,25.5626095,84.663264,CO,10,26,18
India,Bihar,Aurangabad,"Gurdeo Nagar, Aurangabad - BSPCB",05-09-2024,24.75746,84.366208,SO2,9,18,13
India,Bihar,Begusarai,"Lohiyanagar, Begusarai - BSPCB",23-10-2025,25.42742023,86.13886079,NO2,53,97,73
India,Bihar,Buxar,"Charitra Van, Buxar - BSPCB",16-07-2024,25.56752,83.966379,PM10,83,139,105
India,Bihar,Buxar,"Charitra Van, Buxar - BSPCB",22-04-2025,25.56752,83.966379,NO2,4,5,5
India,Bihar,Buxar,"Charitra Van, Buxar - BSPCB",18-04-2024,25.56752,83.966379,NH3,4,4,4
India,Bihar,Chhapra,"Darshan Nagar, Chhapra - BSPCB",14-01-2025,25.7808257,84.7446768,PM2.5,45,85,66
India,Bihar,Gaya,"Collectorate, Gaya - BSPCB",19-06-2024,24.7955,84.9994,SO2,13,15,14
India,Bihar,Bhagalpur,"DM Office_Kachari Chowk, Bhagalpur - BSPCB",05-11-2024,25.251013,86.989001,NO2,14,41,24
India,Bihar,Bhagalpur,"DM Office_Kachari Chowk, Bhagalpur - BSPCB",09-04-2025,25.251013,86.989001,CO,11,16,13
India,Bihar,Bhagalpur,"Mayaganj, Bhagalpur - BSPCB",06-12-2024,25.265194,87.012947,SO2,2,107,59
India,Bihar,Bhagalpur,"Mayaganj, Bhagalpur - BSPCB",14-08-2025,25.265194,87.012947,OZONE,2,61,10
India,Bihar,Bihar Sharif,"D M Colony, Bihar Sharif - BSPCB",19-12-2024,25.204762,85.51496,NH3,1,2,2
India,Assam,Byrnihat,"Central Academy for SFS, Byrnihat - PCBA",07-05-2025,26.071318,91.87488,PM10,67,433,207
India,Assam,Byrnihat,"Central Academy for SFS, Byrnihat - PCBA",13-02-2025,26.071318,91.87488,NO2,13,30,18
India,Assam,Guwahati,"IITG, Guwahati - PCBA",06-05-2024,26.2028636,91.70046436,NH3,5,5,5
India,Assam,Guwahati,"IITG, Guwahati - PCBA",04-02-2024,26.2028636,91.70046436,SO2,19,23,20
India,Bihar,Gaya,"SFTI Kusdihra, Gaya - BSPCB",19-06-2024,24.762518,84.982348,PM2.5,24,79,54
India,Bihar,Hajipur,"Industrial Area, Hajipur - BSPCB",16-04-2025,25.697189,85.2459,PM2.5,127,320,240
India,Assam,Guwahati,"Railway Colony, Guwahati - PCBA",19-09-2025,26.181742,91.78063,NO2,3,4,3
India,Assam,Guwahati,"Railway Colony, Guwahati - PCBA",03-01-2024,26.181742,91.78063,SO2,19,22,20
India,Assam,Guwahati,"LGBI Airport, Guwahati - PCBA",03-05-2025,26.10887,91.589544,OZONE,17,20,18
India,Bihar,Katihar,"Mirchaibari, Katihar - BSPCB",27-01-2024,25.560083,87.553265,PM10,32,73,47
India,Bihar,Katihar,"Mirchaibari, Katihar - BSPCB",10-07-2024,25.560083,87.553265,CO,1,32,27
India,Bihar,Katihar,"Mirchaibari, Katihar - BSPCB",16-11-2024,25.560083,87.553265,OZONE,5,40,14
India,Bihar,Kishanganj,"SDM Office_Khagra, Kishanganj - BSPCB",27-04-2024,26.0881305,87.93840336,PM2.5,27,60,46
India,Bihar,Kishanganj,"SDM Office_Khagra, Kishanganj - BSPCB",01-01-2024,26.0881305,87.93840336,SO2,15,69,34
India,Bihar,Kishanganj,"SDM Office_Khagra, Kishanganj - BSPCB",21-01-2024,26.0881305,87.93840336,CO,52,102,101
India,Bihar,Manguraha,"Forest Rest House, Manguraha - BSPCB",17-08-2025,27.308328,84.531742,NO2,6,23,15
India,Bihar,Munger,"Town Hall, Munger - BSPCB",04-01-2025,25.376776,86.471523,NO2,22,23,23
India,Bihar,Munger,"Town Hall, Munger - BSPCB",13-04-2025,25.376776,86.471523,NH3,6,8,7
India,Bihar,Purnia,"Mariam Nagar, Purnia - BSPCB",04-04-2024,25.366336,87.117468,SO2,13,17,17
India,Bihar,Purnia,"Mariam Nagar, Purnia - BSPCB",03-12-2025,25.366336,87.117468,CO,9,80,52
India,Bihar,Rajgir,"Dangi Tola, Rajgir - BSPCB",03-01-2025,25.0328,85.41948,CO,8,42,31
India,Bihar,Muzaffarpur,"Buddha Colony, Muzaffarpur - BSPCB",13-08-2025,26.11442,85.39813,CO,22,84,30
India,Bihar,Muzaffarpur,"MIT-Daudpur Kothi, Muzaffarpur - BSPCB",11-02-2025,26.1403345,85.3650192,NO2,17,18,17
India,Bihar,Patna,"IGSC Planetarium Complex, Patna - BSPCB",15-03-2025,25.610369,85.132568,CO,17,47,42
India,Bihar,Patna,"IGSC Planetarium Complex, Patna - BSPCB",04-12-2024,25.610369,85.132568,OZONE,42,45,43
India,Bihar,Patna,"Samanpura, Patna - BSPCB",08-05-2024,25.596727,85.085624,SO2,NA,NA,NA
India,Bihar,Patna,"Samanpura, Patna - BSPCB",27-11-2024,25.596727,85.085624,CO,12,33,21
India,Bihar,Muzaffarpur,"Muzaffarpur Collectorate, Muzaffarpur - BSPCB",05-02-2025,26.1209,85.3647,CO,16,32,24
India,Bihar,Patna,"DRM Office Danapur, Patna - BSPCB",05-09-2024,25.586562,85.043586,CO,36,82,57
India,Bihar,Patna,"Muradpur, Patna - BSPCB",22-06-2024,25.619651,85.147382,OZONE,6,39,19
India,Bihar,Patna,"Samanpura, Patna - BSPCB",20-02-2025,25.596727,85.085624,PM2.5,NA,NA,NA
India,Bihar,Siwan,"Chitragupta Nagar, Siwan - BSPCB",25-06-2025,26.2271665,84.3570427,NO2,5,10,6
India,Bihar,Siwan,"Chitragupta Nagar, Siwan - BSPCB",28-07-2025,26.2271665,84.3570427,NH3,1,2,1
India,Bihar,Siwan,"Chitragupta Nagar, Siwan - BSPCB",05-03-2024,26.2271665,84.3570427,SO2,4,72,13
India,Chandigarh,Chandigarh,"Sector 22, Chandigarh - CPCC",23-01-2024,30.735567,76.775714,CO,33,61,45
India,Chandigarh,Chandigarh,"Sector 22, Chandigarh - CPCC",12-06-2024,30.735567,76.775714,OZONE,62,152,103
India,Chandigarh,Chandigarh,"Sector-25, Chandigarh - CPCC",13-11-2025,30.751462,76.762879,NO2,19,39,25
India,Chandigarh,Chandigarh,"Sector-25, Chandigarh - CPCC",18-04-2025,30.751462,76.762879,NH3,17,24,20
India,Chhattisgarh,Milupara,"Govt. Higher Secondary School, Milupara - CECB",27-08-2024,22.1910172,83.5197009,OZONE,13,45,18
India,Chhattisgarh,Raipur,"AIIMS, Raipur - CECB",26-10-2025,21.258815,81.578979,PM2.5,22,35,29
India,Chhattisgarh,Raipur,"AIIMS, Raipur - CECB",14-11-2025,21.258815,81.578979,NH3,7,8,7
India,Chhattisgarh,Raipur,"Bhatagaon New ISBT, Raipur - CECB",18-04-2024,21.219665,81.630094,PM2.5,3,51,25
India,Chhattisgarh,Raipur,"Krishak Nagar, Raipur - CECB",17-12-2024,21.237755,81.705301,CO,29,44,32
India,Chhattisgarh,Korba,"Rampur, Korba - CECB",05-12-2024,22.368195,82.746431,PM10,76,124,97
India,Chhattisgarh,Korba,"Urja Nagar, Korba - CECB",18-04-2024,22.348441,82.549611,PM2.5,59,208,110
India,Chhattisgarh,Milupara,"Govt. Higher Secondary School, Milupara - CECB",24-02-2024,22.1910172,83.5197009,NH3,NA,NA,NA
India,Chhattisgarh,Milupara,"Govt. Higher Secondary School, Milupara - CECB",27-10-2024,22.1910172,83.5197009,CO,5,50,37
India,Chhattisgarh,Raipur,"Siltara Phase-II, Raipur - CECB",12-10-2024,21.371751,81.664929,NO2,30,46,37
India,Chhattisgarh,Raipur,"Siltara Phase-II, Raipur - CECB",10-11-2024,21.371751,81.664929,SO2,11,54,21
India,Delhi,Delhi,"Alipur, Delhi - DPCC",19-01-2025,28.815329,77.15301,PM2.5,28,302,96
India,Chhattisgarh,Bhilai,"Hathkhoj, Bhilai - CECB",25-06-2024,21.224231,81.40835,CO,22,22,22
India,Chhattisgarh,Chhal,"Nawapara SECL Colony, Chhal - CECB",22-10-2024,22.118125,83.140608,PM2.5,35,77,60
India,Chandigarh,Chandigarh,"Sector-53, Chandigarh - CPCC",12-02-2025,30.719859,76.738637,NH3,4,7,5
India,Chandigarh,Chandigarh,"Sector-53, Chandigarh - CPCC",11-11-2025,30.719859,76.738637,CO,29,54,42
India,Delhi,Delhi,"Anand Vihar, Delhi - DPCC",02-02-2025,28.647622,77.315809,NO2,41,94,63
India,Delhi,Delhi,"Ashok Vihar, Delhi - DPCC",03-11-2025,28.695381,77.181665,SO2,15,57,27
India,Chhattisgarh,Bhilai,"32Bungalows, Bhilai - CECB",20-03-2024,21.194815,81.31477,PM2.5,32,45,38
India,Delhi,Delhi,"Aya Nagar, Delhi - IMD",28-03-2025,28.4706914,77.1099364,OZONE,NA,NA,NA
India,Delhi,Delhi,"Dwarka-Sector 8, Delhi - DPCC ",04-05-2024,28.5710274,77.0719006,PM10,117,238,157
India,Delhi,Delhi,"Dwarka-Sector 8, Delhi - DPCC ",23-09-2024,28.5710274,77.0719006,SO2,8,12,10
India,Delhi,Delhi,"Dwarka-Sector 8, Delhi - DPCC ",10-08-2025,28.5710274,77.0719006,CO,24,69,48
India,Delhi,Delhi,"IGI Airport (T3), Delhi - IMD",22-05-2024,28.5627763,77.1180053,CO,35,56,42
India,Delhi,Delhi,"IGI Airport (T3), Delhi - IMD",25-07-2025,28.5627763,77.1180053,OZONE,10,126,34
India,Delhi,Delhi,"IHBAS, Dilshad Garden, Delhi - CPCB",10-11-2024,28.6811736,77.3025234,PM2.5,53,226,101
India,Delhi,Delhi,"IHBAS, Dilshad Garden, Delhi - CPCB",18-06-2024,28.6811736,77.3025234,OZONE,8,59,18
India,Delhi,Delhi,"ITO, Delhi - CPCB",02-10-2025,28.628624,77.24106,PM2.5,NA,NA,NA
India,Delhi,Delhi,"ITO, Delhi - CPCB",10-05-2024,28.628624,77.24106,NH3,3,10,7
India,Delhi,Delhi,"ITO, Delhi - CPCB",05-03-2024,28.628624,77.24106,OZONE,3,40,12
India,Delhi,Delhi,"Jahangirpuri, Delhi - DPCC",03-02-2025,28.73282,77.170633,PM2.5,43,343,168
India,Delhi,Delhi,"Jahangirpuri, Delhi - DPCC",28-08-2025,28.73282,77.170633,NH3,7,10,9
India,Delhi,Delhi,"Lodhi Road, Delhi - IMD",11-11-2025,28.5918245,77.2273074,CO,9,22,22
India,Delhi,Delhi,"Major Dhyan Chand National Stadium, Delhi - DPCC",26-02-2025,28.611281,77.237738,NO2,18,132,57
India,Delhi,Delhi,"Major Dhyan Chand National Stadium, Delhi - DPCC",18-02-2024,28.611281,77.237738,NH3,14,21,16
India,Delhi,Delhi,"Bawana, Delhi - DPCC",25-12-2024,28.7762,77.051074,CO,8,52,32
India,Delhi,Delhi,"Bawana, Delhi - DPCC",09-03-2025,28.7762,77.051074,OZONE,21,151,51
India,Delhi,Delhi,"Burari Crossing, Delhi - IMD",28-08-2024,28.7256504,77.2011573,PM10,100,196,138
India,Delhi,Delhi,"DTU, Delhi - CPCB",07-08-2025,28.7500499,77.1112615,SO2,65,72,68
India,Delhi,Delhi,"Dr. Karni Singh Shooting Range, Delhi - DPCC",28-07-2025,28.498571,77.26484,PM10,101,195,140
India,Delhi,Delhi,"DTU, Delhi - CPCB",22-06-2024,28.7500499,77.1112615,PM10,111,381,175
India,Delhi,Delhi,"DTU, Delhi - CPCB",06-11-2025,28.7500499,77.1112615,NO2,42,52,46
India,Delhi,Delhi,"NSIT Dwarka, Delhi - CPCB",12-11-2024,28.60909,77.0325413,SO2,2,15,9
India,Delhi,Delhi,"Lodhi Road, Delhi - IMD",09-11-2025,28.5918245,77.2273074,PM10,NA,NA,NA
India,Delhi,Delhi,"Mandir Marg, Delhi - DPCC",26-04-2025,28.636429,77.201067,NH3,7,11,9
India,Delhi,Delhi,"Najafgarh, Delhi - DPCC",20-02-2024,28.570173,76.933762,NH3,7,10,8
India,Delhi,Delhi,"Sirifort, Delhi - CPCB",11-02-2025,28.5504249,77.2159377,CO,22,101,43
India,Delhi,Delhi,"Sonia Vihar, Delhi - DPCC",27-12-2024,28.710508,77.249485,NH3,5,7,6
India,Delhi,Delhi,"Sri Aurobindo Marg, Delhi - DPCC",24-01-2025,28.531346,77.190156,NO2,7,62,34
India,Delhi,Delhi,"Sri Aurobindo Marg, Delhi - DPCC",23-12-2025,28.531346,77.190156,NH3,8,10,9
India,Delhi,Delhi,"Sri Aurobindo Marg, Delhi - DPCC",15-10-2024,28.531346,77.190156,CO,9,40,25
India,Delhi,Delhi,"Wazirpur, Delhi - DPCC",07-12-2025,28.699793,77.165453,PM10,120,335,190
India,Delhi,Delhi,"Rohini, Delhi - DPCC",20-02-2024,28.732528,77.11992,OZONE,35,146,67
India,Delhi,Delhi,"Shadipur, Delhi - CPCB",15-01-2025,28.6514781,77.1473105,NO2,42,88,67
India,Delhi,Delhi,"Sirifort, Delhi - CPCB",01-11-2025,28.5504249,77.2159377,PM2.5,57,312,128
India,Delhi,Delhi,"Sirifort, Delhi - CPCB",23-12-2025,28.5504249,77.2159377,PM10,106,247,161
India,Delhi,Delhi,"Okhla Phase-2, Delhi - DPCC",19-09-2024,28.530785,77.271255,NH3,8,10,9
India,Delhi,Delhi,"Okhla Phase-2, Delhi - DPCC",05-03-2024,28.530785,77.271255,CO,60,104,88
India,Delhi,Delhi,"Patparganj, Delhi - DPCC",12-02-2024,28.623763,77.287209,CO,12,51,42
India,Delhi,Delhi,"R K Puram, Delhi - DPCC",13-08-2024,28.563262,77.186937,PM2.5,45,331,127
India,Delhi,Delhi,"R K Puram, Delhi - DPCC",24-09-2024,28.563262,77.186937,CO,4,54,41
India,Delhi,Delhi,"Rohini, Delhi - DPCC",22-08-2024,28.732528,77.11992,PM2.5,23,357,148
India,Delhi,Delhi,"Punjabi Bagh, Delhi - DPCC",04-01-2024,28.674045,77.131023,SO2,10,52,32
India,Delhi,Delhi,"Pusa, Delhi - DPCC",13-05-2024,28.639652,77.146275,PM2.5,30,320,113
India,Delhi,Delhi,"North Campus, DU, Delhi - IMD",22-06-2024,28.6573814,77.1585447,PM2.5,59,302,113
India,Delhi,Delhi,"Nehru Nagar, Delhi - DPCC",05-08-2025,28.56789,77.250515,OZONE,19,304,227
India,Delhi,Delhi,"Pusa, Delhi - DPCC",23-05-2025,28.639652,77.146275,OZONE,3,38,14
India,Delhi,Delhi,"Rohini, Delhi - DPCC",04-11-2025,28.732528,77.11992,SO2,7,59,26
India,Gujarat,Ahmedabad,"Rakhial, Ahmedabad - IITM",13-11-2024,23.016834,72.625775,NH3,6,15,8
India,Gujarat,Ahmedabad,"SAC ISRO Bopal, Ahmedabad - IITM",07-05-2025,23.041137,72.456691,PM10,43,127,81
India,Gujarat,Ahmedabad,"SAC ISRO Bopal, Ahmedabad - IITM",24-09-2024,23.041137,72.456691,NH3,1,16,4
India,Gujarat,Ahmedabad,"SAC ISRO Bopal, Ahmedabad - IITM",02-11-2025,23.041137,72.456691,OZONE,2,45,13
India,Gujarat,Ahmedabad,"SVPI Airport Hansol, Ahmedabad - IITM",15-03-2025,23.076793,72.627874,NH3,4,10,8
India,Gujarat,Ahmedabad,"SVPI Airport Hansol, Ahmedabad - IITM",23-02-2025,23.076793,72.627874,CO,11,103,41
India,Gujarat,Ahmedabad,"Sardar Vallabhbhai Patel Stadium, Ahmedabad - IITM",07-03-2025,23.04307,72.562968,PM2.5,52,274,128
India,Gujarat,Ahmedabad,"Sardar Vallabhbhai Patel Stadium, Ahmedabad - IITM",13-07-2025,23.04307,72.562968,NO2,12,84,37
India,Gujarat,Gandhinagar,"IIPHG Lekawada, Gandhinagar - IITM",03-09-2025,23.243639,72.68994,PM10,59,174,108
India,Gujarat,Gandhinagar,"IIPHG Lekawada, Gandhinagar - IITM",20-04-2024,23.243639,72.68994,SO2,6,25,11
India,Gujarat,Gandhinagar,"IIPHG Lekawada, Gandhinagar - IITM",03-12-2025,23.243639,72.68994,CO,42,112,66
India,Gujarat,Gandhinagar,"Sector-10, Gandhinagar - GPCB",28-02-2024,23.221714,72.654328,OZONE,22,23,22
India,Gujarat,Surat,"Science Center, Surat - SMC",28-04-2025,21.170046,72.795405,CO,36,74,52
India,Gujarat,Vapi,"Phase-1 GIDC, Vapi - GPCB",12-01-2025,20.362421,72.918013,NH3,10,10,10
India,Gujarat,Vapi,"Phase-1 GIDC, Vapi - GPCB",08-10-2024,20.362421,72.918013,SO2,30,42,37
India,Himachal Pradesh,Baddi,"HIMUDA Complex Phase-1, Baddi - HPPCB",10-04-2025,30.943887,76.801991,CO,31,60,53
India,Himachal Pradesh,Baddi,"HIMUDA Complex Phase-1, Baddi - HPPCB",23-01-2025,30.943887,76.801991,OZONE,32,120,59
India,Jammu_and_Kashmir,Srinagar,"Rajbagh, Srinagar - JKSPCB",03-10-2025,34.066206,74.81982,PM2.5,46,66,55
India,Jammu_and_Kashmir,Srinagar,"Rajbagh, Srinagar - JKSPCB",02-07-2024,34.066206,74.81982,PM10,41,58,49
India,Karnataka,Bagalkot,"Vidayagiri, Bagalkot - KSPCB",08-03-2025,16.172806,75.659694,PM2.5,33,34,34
India,Gujarat,Ankleshwar,"GIDC, Ankleshwar - GPCB",23-08-2024,21.613267,73.010555,PM10,37,63,46
India,Gujarat,Gandhinagar,"GIFT City, Gandhinagar - IITM",22-01-2025,23.163798,72.677768,PM2.5,40,310,126
India,Gujarat,Gandhinagar,"GIFT City, Gandhinagar - IITM",03-07-2025,23.163798,72.677768,PM10,44,183,95
India,Gujarat,Gandhinagar,"GIFT City, Gandhinagar - IITM",03-04-2024,23.163798,72.677768,OZONE,2,65,12
India,Gujarat,Ahmedabad,"Gyaspur, Ahmedabad - IITM",24-01-2024,22.977134,72.553024,NH3,1,37,12
India,Gujarat,Ahmedabad,"Maninagar, Ahmedabad - GPCB",17-03-2025,23.002657,72.591912,OZONE,1,158,18
India,Gujarat,Ahmedabad,"Raikhad, Ahmedabad - IITM",19-04-2024,23.020509,72.579261,PM2.5,42,175,89
India,Delhi,Delhi,"Wazirpur, Delhi - DPCC",28-10-2024,28.699793,77.165453,SO2,21,72,37
India,Delhi,Delhi,"Wazirpur, Delhi - DPCC",10-01-2024,28.699793,77.165453,OZONE,22,220,74
India,Karnataka,Bengaluru,"City Railway Station, Bengaluru - KSPCB",03-10-2024,12.9756843,77.5660749,SO2,9,19,12
India,Haryana,Panchgaon,"Amity University, Panchgaon - IITM",13-03-2024,28.3153,76.9143,PM10,23,67,43
India,Karnataka,Belgaum,"Ramteerth Nagar, Belgaum - KSPCB",21-04-2024,15.888653,74.541751,SO2,15,15,15
India,Karnataka,Chikkaballapur,"Chikkaballapur Rural, Chikkaballapur - KSPCB",26-01-2025,13.428828,77.731418,OZONE,23,29,24
India,Karnataka,Chikkamagaluru,"Kalyana Nagara, Chikkamagaluru - KSPCB",13-06-2024,13.328028,75.797056,SO2,1,4,2
India,Karnataka,Bengaluru,"Hombegowda Nagar, Bengaluru - KSPCB",09-09-2025,12.938539,77.5901,PM2.5,8,29,16
India,Karnataka,Bengaluru,"Hombegowda Nagar, Bengaluru - KSPCB",05-05-2024,12.938539,77.5901,NO2,9,38,19
India,Karnataka,Bengaluru,"Hombegowda Nagar, Bengaluru - KSPCB",19-05-2024,12.938539,77.5901,CO,10,26,15
India,Karnataka,Bengaluru,"Shivapura_Peenya, Bengaluru - KSPCB",02-07-2024,13.0246342,77.5080115,CO,29,38,32
India,Karnataka,Bengaluru,"Shivapura_Peenya, Bengaluru - KSPCB",20-05-2024,13.0246342,77.5080115,OZONE,22,26,24
India,Karnataka,Gadag,"Panchal Nagar, Gadag - KSPCB",06-05-2025,15.411456,75.638133,NO2,NA,NA,NA
India,Karnataka,Gadag,"Panchal Nagar, Gadag - KSPCB",28-10-2024,15.411456,75.638133,OZONE,NA,NA,NA
India,Karnataka,Bengaluru,"Jayanagar 5th Block, Bengaluru - KSPCB",14-07-2025,12.920984,77.584908,SO2,3,14,10
India,Karnataka,Chamarajanagar,"Urban, Chamarajanagar - KSPCB",22-04-2024,11.55358,76.55521,OZONE,15,38,24
India,Karnataka,Bengaluru,"Silk Board, Bengaluru - KSPCB",20-02-2024,12.917348,77.622813,PM2.5,15,40,29
India,Karnataka,Bengaluru,"Sanegurava Halli, Bengaluru - KSPCB",23-08-2025,12.990328,77.5431385,SO2,7,7,7
India,Karnataka,Bengaluru,"Peenya, Bengaluru - CPCB",12-08-2024,13.0270199,77.494094,OZONE,3,45,15
India,Karnataka,Kalaburagi,"Lal Bahadur Shastri Nagar, Kalaburagi - KSPCB",26-04-2025,17.321993,76.822628,PM2.5,38,94,62
India,Karnataka,Kalaburagi,"Lal Bahadur Shastri Nagar, Kalaburagi - KSPCB",12-10-2024,17.321993,76.822628,NO2,7,9,8
India,Karnataka,Kalaburagi,"Mahatma Basaveswar Colony, Kalaburgi - KSPCB",23-06-2025,17.336318,76.847397,PM2.5,12,53,23
India,Karnataka,Kalaburagi,"Mahatma Basaveswar Colony, Kalaburgi - KSPCB",23-10-2025,17.336318,76.847397,PM10,20,71,34
India,Karnataka,Kalaburagi,"Mahatma Basaveswar Colony, Kalaburgi - KSPCB",19-04-2024,17.336318,76.847397,NO2,8,18,12
India,Karnataka,Kalaburagi,"Mahatma Basaveswar Colony, Kalaburgi - KSPCB",21-12-2025,17.336318,76.847397,CO,32,59,35
India,Karnataka,Koppal,"Diwator Nagar, Koppal - KSPCB",26-07-2025,15.34763,76.181767,PM2.5,10,46,26
India,Karnataka,Koppal,"Diwator Nagar, Koppal - KSPCB",04-12-2025,15.34763,76.181767,NH3,1,3,2
India,Karnataka,Madikeri,"Stuart Hill, Madikeri - KSPCB",07-12-2025,12.415911,75.73505,SO2,4,4,4
India,Karnataka,Mangalore,"Kadri, Mangalore - KSPCB",14-03-2024,12.88925,74.853,PM10,NA,NA,NA
India,Karnataka,Ramanagara,"Vijay Nagar, Ramanagara - KSPCB",20-04-2024,12.733409,77.298051,OZONE,18,100,16
India,Karnataka,Shivamogga,"Vinoba Nagara, Shivamogga - KSPCB",17-02-2024,13.94,75.555917,PM10,38,53,50
India,Karnataka,Kalaburagi,"Mahatma Basaveswar Colony, Kalaburgi - KSPCB",22-04-2024,17.336318,76.847397,OZONE,2,17,4
India,Karnataka,Hubballi,"Lingaraj Nagar, Hubballi - KSPCB",24-03-2024,15.3714823,75.1160168,PM10,46,51,49
India,Karnataka,Ramanagara,"Vijay Nagar, Ramanagara - KSPCB",25-04-2024,12.733409,77.298051,NO2,12,17,14
India,Karnataka,Tumakuru,"Thimmalapura, Tumakuru - KSPCB",23-04-2025,13.377516,77.099072,OZONE,4,7,6
India,Karnataka,Tumakuru,"Thimmalapura, Tumakuru - KSPCB",02-12-2024,13.377516,77.099072,NH3,2,2,2
India,Kerala,Eloor,"Udyogamandal, Eloor - Kerala PCB",10-04-2024,10.073232,76.302765,SO2,3,3,3
India,Madhya Pradesh,Indore,"Airport Area, Indore - IMC",05-02-2024,22.7289,75.8076,CO,10,13,12
India,Madhya Pradesh,Indore,"Chhoti Gwaltoli, Indore - MPPCB",01-08-2025,22.431,75.5213,NH3,1,17,6
India,Madhya Pradesh,Indore,"Regional Park, Indore - IMC",23-04-2024,22.678,75.8559,CO,38,70,54
India,Madhya Pradesh,Indore,"Regional Park, Indore - IMC",05-06-2024,22.678,75.8559,OZONE,6,18,7
India,Madhya Pradesh,Indore,"Residency Area, Indore - IMC",11-06-2024,22.7084,75.8815,NO2,11,17,13
India,Madhya Pradesh,Indore,"Residency Area, Indore - IMC",01-06-2024,22.7084,75.8815,SO2,30,71,40
India,Madhya Pradesh,Jabalpur,"Govindh Bhavan Colony, Jabalpur - JMC",20-01-2024,23.163174,79.973061,PM2.5,NA,NA,NA
India,Madhya Pradesh,Jabalpur,"Gupteshwar, Jabalpur - JMC",13-04-2025,23.142888,79.916147,PM2.5,30,263,99
India,Kerala,Kollam,"Polayathode, Kollam - Kerala PCB",28-12-2024,8.8787,76.6073,PM10,58,73,64
India,Kerala,Thiruvananthapuram,"Kariavattom, Thiruvananthapuram - Kerala PCB",04-02-2025,8.5637,76.8865,SO2,1,13,5
India,Kerala,Thiruvananthapuram,"Kariavattom, Thiruvananthapuram - Kerala PCB",09-12-2024,8.5637,76.8865,CO,18,32,23
India,Kerala,Thiruvananthapuram,"Plammoodu, Thiruvananthapuram - Kerala PCB",28-07-2025,8.5149093,76.9435879,PM2.5,5,63,23
India,Kerala,Thiruvananthapuram,"Plammoodu, Thiruvananthapuram - Kerala PCB",24-07-2025,8.5149093,76.9435879,OZONE,6,20,11
India,Madhya Pradesh,Bhopal,"Idgah Hills, Bhopal - MPPCB",19-09-2025,23.264759,77.381568,NH3,4,22,7
India,Madhya Pradesh,Damoh,"Shrivastav Colony, Damoh - MPPCB",06-05-2024,23.81748678,79.446246,PM2.5,21,142,64
India,Madhya Pradesh,Dewas,"Bhopal Chauraha, Dewas - MPPCB",12-12-2024,22.9682591,76.064118,OZONE,48,69,60
India,Madhya Pradesh,Gwalior,"City Center, Gwalior - MPPCB",03-11-2025,26.203442,78.193251,PM2.5,24,303,130
India,Madhya Pradesh,Ratlam,"Shasthri Nagar, Ratlam - IPCA Lab",07-07-2024,23.331731,75.045981,SO2,42,50,44
India,Madhya Pradesh,Sagar,"Civil Lines, Sagar - MPPCB",22-09-2025,23.838586,78.759431,PM2.5,25,138,60
India,Madhya Pradesh,Sagar,"Civil Lines, Sagar - MPPCB",05-06-2024,23.838586,78.759431,PM10,29,121,66
India,Madhya Pradesh,Jabalpur,"Gupteshwar, Jabalpur - JMC",17-02-2025,23.142888,79.916147,NO2,17,139,44
India,Madhya Pradesh,Jabalpur,"Gupteshwar, Jabalpur - JMC",08-12-2025,23.142888,79.916147,NH3,2,3,3
India,Madhya Pradesh,Jabalpur,"Marhatal, Jabalpur - MPPCB",01-04-2024,23.168606,79.932247,PM10,78,228,119
India,Kerala,Kannur,"Thavakkara, Kannur - Kerala PCB",19-04-2025,11.875,75.3732,PM2.5,49,56,52
India,Kerala,Kannur,"Thavakkara, Kannur - Kerala PCB",26-03-2025,11.875,75.3732,NH3,1,2,1
India,Madhya Pradesh,Maihar,"Sahilara, Maihar - KJS Cements",27-10-2024,24.2613009,80.7231783,NO2,11,12,12
India,Madhya Pradesh,Maihar,"Sahilara, Maihar - KJS Cements",14-05-2024,24.2613009,80.7231783,CO,21,24,23
India,Madhya Pradesh,Singrauli,"Suryakiran Bhawan NCL, Singrauli - MPPCB",11-10-2024,24.10897,82.64558,NO2,2,105,49
India,Madhya Pradesh,Bhopal,"Paryavaran Parisar, Bhopal - MPPCB",19-09-2025,23.210494,77.425409,PM2.5,33,305,88
India,Maharashtra,Badlapur,"Katrap, Badlapur - MPCB",25-05-2024,19.16485,73.23409,CO,10,54,30
India,Maharashtra,Belapur,"CBD Belapur, Belapur - MPCB",02-03-2024,19.0243902,73.0406721,PM2.5,39,129,74
India,Maharashtra,Belapur,"CBD Belapur, Belapur - MPCB",21-09-2024,19.0243902,73.0406721,NO2,8,34,22
India,Maharashtra,Belapur,"CBD Belapur, Belapur - MPCB",14-05-2025,19.0243902,73.0406721,NH3,5,15,8
India,Maharashtra,Aurangabad,"MIDC Chilkalthana, Aurangabad - MPCB",09-09-2025,19.87562,75.38731,OZONE,29,89,54
India,Maharashtra,Aurangabad,"More Chowk Waluj, Aurangabad - MPCB",08-05-2025,19.8389439,75.244448,CO,31,46,41
India,Maharashtra,Amravati,"Shri Shivaji Science College, Amaravati - MPCB",27-01-2024,20.939198,77.765701,SO2,1,3,2
India,Maharashtra,Amravati,"Shri Shivaji Science College, Amaravati - MPCB",27-02-2025,20.939198,77.765701,OZONE,11,91,58
India,Maharashtra,Amravati,"Shri Shivaji Science College, Amaravati - MPCB",22-03-2024,20.939198,77.765701,PM2.5,41,89,64
India,Maharashtra,Amravati,"Shri Shivaji Science College, Amaravati - MPCB",06-12-2025,20.939198,77.765701,PM10,61,105,78
India,Maharashtra,Aurangabad,"Rachnakar Colony, Aurangabad - MPCB",08-07-2024,19.863756,75.321188,NO2,25,30,27
India,Maharashtra,Aurangabad,"Rachnakar Colony, Aurangabad - MPCB",11-11-2025,19.863756,75.321188,NH3,2,4,3
India,Maharashtra,Bhiwandi,"Gokul Nagar, Bhiwandi - MPCB",11-05-2025,19.309073,73.057223,PM10,31,340,109
India,Maharashtra,Bhiwandi,"Gokul Nagar, Bhiwandi - MPCB",20-12-2024,19.309073,73.057223,NH3,2,6,5
India,Madhya Pradesh,Ujjain,"Mahakaleshwar Temple, Ujjain - MPPCB",05-07-2025,23.182719,75.768218,PM2.5,NA,NA,NA
India,Madhya Pradesh,Ujjain,"Mahakaleshwar Temple, Ujjain - MPPCB",19-08-2024,23.182719,75.768218,NO2,NA,NA,NA
India,Madhya Pradesh,Ujjain,"Mahakaleshwar Temple, Ujjain - MPPCB",23-03-2025,23.182719,75.768218,SO2,NA,NA,NA
India,Maharashtra,Aurangabad,"MIDC Chilkalthana, Aurangabad - MPCB",14-11-2025,19.87562,75.38731,NO2,9,60,32
India,Maharashtra,Latur,"Sawe Wadi, Latur - MPCB",23-05-2025,18.39963,76.57452,NO2,16,180,56
India,Maharashtra,Latur,"Sawe Wadi, Latur - MPCB",14-07-2024,18.39963,76.57452,OZONE,3,88,18
India,Maharashtra,Mahad,"Kamble Tarf Birwadi, Mahad - MPCB",28-07-2024,18.1023399,73.4783687,NH3,NA,NA,NA
India,Maharashtra,Mahad,"Kamble Tarf Birwadi, Mahad - MPCB",01-07-2024,18.1023399,73.4783687,OZONE,2,88,17
India,Maharashtra,Malegaon,"Mahesh Nagar, Malegaon - MPCB",01-06-2024,20.555712,74.529236,PM10,43,188,81
India,Maharashtra,Malegaon,"Mahesh Nagar, Malegaon - MPCB",02-11-2025,20.555712,74.529236,OZONE,26,88,33
India,Maharashtra,Mira-Bhayandar,"Bhayandar West, Mira-Bhayandar - MPCB",02-03-2024,19.296481,72.840923,PM2.5,28,77,52
India,Maharashtra,Jalgaon,"Prabhat Colony, Jalgaon - MPCB",12-01-2024,21.001264,75.565602,OZONE,2,110,48
India,Maharashtra,Jalna,"Old MIDC, Jalna - MPCB",09-05-2024,19.854616,75.905894,PM2.5,24,148,91
India,Maharashtra,Jalna,"Old MIDC, Jalna - MPCB",22-10-2024,19.854616,75.905894,PM10,28,165,102
India,Maharashtra,Chandrapur,"Chauhan Colony, Chandrapur - MPCB",10-04-2024,19.9629,79.298714,OZONE,20,27,23
India,Maharashtra,Dhule,"Deopur, Dhule - MPCB",17-07-2025,20.918946,74.776388,PM10,73,112,91
India,Maharashtra,Chandrapur,"Chauhan Colony, Chandrapur - MPCB",19-12-2024,19.9629,79.298714,NO2,23,53,35
India,Maharashtra,Chandrapur,"Chauhan Colony, Chandrapur - MPCB",10-12-2025,19.9629,79.298714,NH3,2,6,4
India,Maharashtra,Kalyan,"Pimpleshwar Mandir, Kalyan - MPCB",12-10-2025,19.192056,72.9585188,PM10,46,408,86
India,Maharashtra,Kolhapur,"Sinchan Bhavan, Kolhapur - MPCB",03-03-2025,16.7143745,74.2426398,SO2,NA,NA,NA
India,Maharashtra,Jalgaon,"Prabhat Colony, Jalgaon - MPCB",23-09-2025,21.001264,75.565602,NH3,5,16,7
India,Maharashtra,Kalyan,"Khadakpada, Kalyan - MPCB",04-01-2024,19.25292,73.142019,SO2,3,8,5
India,Maharashtra,Boisar,"Khaira, Boisar - MPCB",26-12-2024,19.786089,72.757971,NO2,18,41,29
India,Maharashtra,Mira-Bhayandar,"Bhayandar West, Mira-Bhayandar - MPCB",16-04-2025,19.296481,72.840923,NO2,4,57,30
India,Maharashtra,Mira-Bhayandar,"Bhayandar West, Mira-Bhayandar - MPCB",15-12-2024,19.296481,72.840923,OZONE,2,48,4
India,Maharashtra,Mumbai,"Bandra Kurla Complex, Mumbai - MPCB",09-06-2025,19.065931,72.862131,PM2.5,21,91,54
India,Maharashtra,Mumbai,"Bandra Kurla Complex, Mumbai - MPCB",25-03-2024,19.065931,72.862131,NO2,15,113,66
India,Maharashtra,Mumbai,"Bandra Kurla Complex, Mumbai - MPCB",04-07-2024,19.065931,72.862131,SO2,1,5,3
India,Maharashtra,Mumbai,"Borivali East, Mumbai - IITM",14-05-2025,19.23241,72.86895,PM10,69,127,96
India,Maharashtra,Mumbai,"Borivali East, Mumbai - MPCB",27-01-2025,19.2243333,72.8658113,PM2.5,33,42,38
India,Maharashtra,Mumbai,"Borivali East, Mumbai - MPCB",12-11-2025,19.2243333,72.8658113,CO,5,30,7
India,Maharashtra,Mumbai,"Byculla, Mumbai - BMC",15-05-2024,18.9767,72.838,PM2.5,27,118,65
India,Maharashtra,Mumbai,"Kherwadi_Bandra East, Mumbai - MPCB",04-02-2025,19.0632143,72.8456324,NH3,8,32,20
India,Maharashtra,Mumbai,"Kherwadi_Bandra East, Mumbai - MPCB",07-01-2025,19.0632143,72.8456324,SO2,NA,NA,NA
India,Maharashtra,Mumbai,"Kherwadi_Bandra East, Mumbai - MPCB",02-02-2024,19.0632143,72.8456324,OZONE,1,52,10
India,Maharashtra,Mumbai,"Khindipada-Bhandup West, Mumbai - IITM",11-12-2025,19.1653323,72.922099,NH3,2,5,3
India,Maharashtra,Mumbai,"Khindipada-Bhandup West, Mumbai - IITM",25-10-2025,19.1653323,72.922099,SO2,4,27,10
India,Maharashtra,Mumbai,"Khindipada-Bhandup West, Mumbai - IITM",23-09-2024,19.1653323,72.922099,CO,5,65,38
India,Maharashtra,Mumbai,"Kurla, Mumbai - MPCB",15-07-2024,19.0863,72.8888,PM2.5,51,65,56
India,Maharashtra,Mumbai,"Mazgaon, Mumbai - IITM",23-10-2025,18.96702,72.84214,OZONE,4,82,13
India,Maharashtra,Mumbai,"Mindspace-Malad West, Mumbai - MPCB",21-10-2025,19.1878657,72.8304069,PM10,43,115,69
India,Maharashtra,Mumbai,"Mindspace-Malad West, Mumbai - MPCB",09-10-2024,19.1878657,72.8304069,SO2,1,20,7
India,Maharashtra,Mumbai,"Powai, Mumbai - MPCB",20-09-2025,19.1375,72.915056,PM10,70,178,96
India,Maharashtra,Mumbai,"Powai, Mumbai - MPCB",20-04-2024,19.1375,72.915056,NO2,7,8,8
India,Maharashtra,Mumbai,"Powai, Mumbai - MPCB",25-02-2024,19.1375,72.915056,NH3,2,2,2
India,Maharashtra,Mumbai,"Shivaji Nagar, Mumbai - BMC",25-05-2025,19.060498,72.923356,NO2,11,47,24
India,Maharashtra,Mumbai,"Siddharth Nagar-Worli, Mumbai - IITM",20-01-2024,19.000083,72.813993,PM10,62,163,82
India,Maharashtra,Mumbai,"Siddharth Nagar-Worli, Mumbai - IITM",14-06-2024,19.000083,72.813993,NH3,2,3,2
India,Maharashtra,Mumbai,"Sion, Mumbai - MPCB",11-07-2024,19.047,72.8746,PM2.5,73,115,89
India,Maharashtra,Mumbai,"Chhatrapati Shivaji Intl. Airport (T2), Mumbai - MPCB",28-04-2025,19.10078,72.87462,PM10,78,111,90
India,Maharashtra,Mumbai,"Chhatrapati Shivaji Intl. Airport (T2), Mumbai - MPCB",24-08-2024,19.10078,72.87462,CO,22,32,28
India,Maharashtra,Mumbai,"Chhatrapati Shivaji Intl. Airport (T2), Mumbai - MPCB",16-09-2025,19.10078,72.87462,OZONE,7,8,7
India,Maharashtra,Mumbai,"Colaba, Mumbai - MPCB",07-05-2025,18.91,72.82,PM2.5,14,44,24
India,Maharashtra,Mumbai,"Kandivali East, Mumbai - MPCB",22-08-2024,19.2058,72.8682,SO2,NA,NA,NA
India,Maharashtra,Mumbai,"Kandivali West, Mumbai - BMC",12-11-2025,19.215859,72.831718,CO,10,34,18
India,Maharashtra,Mumbai,"Kandivali West, Mumbai - BMC",09-01-2024,19.215859,72.831718,OZONE,7,54,20
India,Maharashtra,Mumbai,"Chembur, Mumbai - MPCB",18-07-2024,19.0364585,72.8954371,PM10,72,414,137
India,Maharashtra,Mumbai,"Malad West, Mumbai - IITM",05-06-2024,19.19709,72.82204,PM2.5,18,88,48
India,Maharashtra,Mumbai,"Colaba, Mumbai - MPCB",03-02-2025,18.91,72.82,CO,26,30,29
India,Maharashtra,Mumbai,"Vasai West, Mumbai - MPCB",09-02-2025,19.3832,72.8204,OZONE,7,7,7
India,Maharashtra,Mumbai,"Vile Parle West, Mumbai - MPCB",26-05-2024,19.10861,72.83622,PM2.5,38,70,50
India,Maharashtra,Mumbai,"Vile Parle West, Mumbai - MPCB",23-08-2025,19.10861,72.83622,SO2,35,37,36
India,Maharashtra,Mumbai,"Worli, Mumbai - MPCB",27-07-2025,18.9936162,72.8128113,SO2,NA,NA,NA
India,Maharashtra,Mumbai,"Worli, Mumbai - MPCB",27-03-2024,18.9936162,72.8128113,CO,NA,NA,NA
India,Maharashtra,Nagpur,"Ambazari, Nagpur - MPCB",03-12-2025,21.121801,79.04952,SO2,11,37,20
India,Maharashtra,Nagpur,"Ambazari, Nagpur - MPCB",07-06-2024,21.121801,79.04952,OZONE,4,100,32
India,Maharashtra,Nagpur,"Mahal, Nagpur - MPCB",13-01-2025,21.14472,79.107595,PM2.5,NA,NA,NA
India,Maharashtra,Nagpur,"Mahal, Nagpur - MPCB",21-02-2025,21.14472,79.107595,PM10,NA,NA,NA
India,Maharashtra,Nagpur,"Mahal, Nagpur - MPCB",09-10-2025,21.14472,79.107595,NO2,NA,NA,NA
India,Maharashtra,Nagpur,"Opp GPO Civil Lines, Nagpur - MPCB",01-10-2024,21.152875,79.0517531,PM2.5,48,100,72
India,Maharashtra,Navi Mumbai,"Sector-2E Kalamboli, Navi Mumbai - MPCB",27-05-2024,19.02579,73.10297,PM10,63,132,96
India,Maharashtra,Navi Mumbai,"Tondare-Taloja, Navi Mumbai - MPCB",19-07-2025,19.063,73.1209,SO2,1,2,1
India,Maharashtra,Parbhani,"Masoom Colony, Parbhani - MPCB",13-08-2024,19.265594,76.761463,PM2.5,30,64,43
India,Maharashtra,Navi Mumbai,"Kopripada-Vashi, Navi Mumbai - MPCB",08-10-2024,19.090337,73.014232,OZONE,9,309,32
India,Maharashtra,Navi Mumbai,"Mahape, Navi Mumbai - MPCB",28-01-2024,19.1135051,73.008978,NO2,NA,NA,NA
India,Maharashtra,Navi Mumbai,"Sanpada, Navi Mumbai - MPCB",21-09-2024,19.0575752,73.0151367,CO,6,29,18
India,Maharashtra,Nanded,"Sneh Nagar, Nanded - MPCB",28-02-2025,19.173852,77.296291,NH3,4,5,4
India,Maharashtra,Nashik,"Gangapur Road, Nashik - MPCB",08-12-2024,20.0073285,73.7762427,PM2.5,58,155,81
India,Maharashtra,Nashik,"Gangapur Road, Nashik - MPCB",17-12-2024,20.0073285,73.7762427,NO2,1,18,7
India,Maharashtra,Pimpri-Chinchwad,"Savta Mali Nagar, Pimpri-Chinchwad - IITM",20-05-2025,18.614767,73.799516,OZONE,15,74,32
India,Maharashtra,Pimpri-Chinchwad,"Thergaon, Pimpri Chinchwad - MPCB",19-03-2024,18.616318,73.765797,PM10,82,142,113
India,Maharashtra,Nashik,"Hirawadi, Nashik - MPCB",13-09-2025,20.021503,73.813844,SO2,5,25,11
India,Maharashtra,Nashik,"Hirawadi, Nashik - MPCB",07-03-2025,20.021503,73.813844,CO,16,53,31
India,Maharashtra,Nashik,"MIDC Ambad, Nashik - MPCB",26-04-2024,19.95022,73.73148,SO2,4,11,8
India,Maharashtra,Nagpur,"Opp GPO Civil Lines, Nagpur - MPCB",26-09-2024,21.152875,79.0517531,OZONE,3,91,28
India,Maharashtra,Nagpur,"Ram Nagar, Nagpur - MPCB",28-12-2025,21.143383,79.048912,NH3,6,13,8
India,Maharashtra,Pimpri-Chinchwad,"Gavalinagar, Pimpri Chinchwad - MPCB",23-07-2025,18.63673,73.82487,NO2,NA,NA,NA
India,Maharashtra,Parbhani,"Masoom Colony, Parbhani - MPCB",07-11-2024,19.265594,76.761463,SO2,15,24,21
India,Manipur,Imphal,"DM College of Science, Imphal - Manipur PCB",04-06-2025,24.8207389,93.9423085,PM10,42,102,74
India,Manipur,Imphal,"DM College of Science, Imphal - Manipur PCB",23-09-2025,24.8207389,93.9423085,NO2,7,8,8
India,Meghalaya,Shillong,"JN Stadium, Shillong - Meghalaya PCB",15-12-2025,25.5803419,91.8942571,OZONE,1,29,20
India,Meghalaya,Shillong,"Lumpyngngad, Shillong - Meghalaya PCB",25-09-2024,25.5586,91.8985,SO2,7,15,9
India,Mizoram,Aizawl,"Sikulpuikawn, Aizawl - Mizoram PCB",03-03-2024,23.7176342,92.7192841,PM2.5,8,42,23
India,Maharashtra,Thane,"Upvan Fort, Thane - MPCB",15-08-2025,19.222279,72.957979,SO2,1,19,5
India,Maharashtra,Thane,"Upvan Fort, Thane - MPCB",25-11-2024,19.222279,72.957979,OZONE,1,72,29
India,Maharashtra,Ulhasnagar,"Sidhi Vinayak Nagar, Ulhasnagar - MPCB",09-10-2025,19.235581,73.159121,PM2.5,50,123,84
India,Maharashtra,Ulhasnagar,"Sidhi Vinayak Nagar, Ulhasnagar - MPCB",18-06-2024,19.235581,73.159121,SO2,5,60,20
India,Maharashtra,Ulhasnagar,"Sidhi Vinayak Nagar, Ulhasnagar - MPCB",14-10-2025,19.235581,73.159121,OZONE,10,80,25
India,Maharashtra,Virar,"Bolinj, Virar - MPCB",09-11-2025,19.445821,72.7988231,PM2.5,23,69,41
India,Maharashtra,Sangli,"Vijay Nagar, Sangli - MPCB",15-04-2024,16.5038,74.3623,NO2,18,73,36
India,Maharashtra,Sangli,"Vijay Nagar, Sangli - MPCB",06-01-2024,16.5038,74.3623,NH3,3,4,3
India,Maharashtra,Solapur,"Dnyaneshwar Nagar, Solapur - MPCB",19-05-2024,17.6336264,75.9132495,PM2.5,37,78,49
India,Maharashtra,Solapur,"Dnyaneshwar Nagar, Solapur - MPCB",01-05-2024,17.6336264,75.9132495,NO2,9,53,18
India,Maharashtra,Solapur,"Dnyaneshwar Nagar, Solapur - MPCB",16-03-2025,17.6336264,75.9132495,SO2,1,4,3
India,Maharashtra,Solapur,"Dnyaneshwar Nagar, Solapur - MPCB",28-11-2024,17.6336264,75.9132495,OZONE,22,95,42
India,Maharashtra,Pimpri-Chinchwad,"Thergaon, Pimpri Chinchwad - MPCB",14-11-2025,18.616318,73.765797,OZONE,1,53,6
India,Maharashtra,Pune,"Bhosari, Pune - IITM",09-06-2025,18.640051,73.848956,NO2,15,122,59
India,Maharashtra,Pune,"Bhumkar Nagar, Pune - IITM",19-03-2025,18.60577,73.749976,PM2.5,60,307,105
India,Maharashtra,Pune,"Bhumkar Nagar, Pune - IITM",14-02-2024,18.60577,73.749976,CO,74,150,106
India,Maharashtra,Pune,"Mhada Colony, Pune - IITM",09-02-2024,18.57304,73.927715,PM10,117,147,130
India,Maharashtra,Pune,"Panchawati_Pashan, Pune - IITM",19-02-2025,18.536457,73.805454,PM10,43,100,66
India,Maharashtra,Pune,"Panchawati_Pashan, Pune - IITM",03-04-2025,18.536457,73.805454,CO,50,82,55
India,Maharashtra,Pune,"Panchawati_Pashan, Pune - IITM",03-12-2024,18.536457,73.805454,OZONE,21,131,71
India,Maharashtra,Pune,"Revenue Colony-Shivajinagar, Pune - IITM",08-08-2024,18.530085,73.849598,OZONE,1,30,6
India,Maharashtra,Pune,"Savitribai Phule Pune University, Pune - MPCB",19-05-2024,18.547056,73.826908,PM10,43,443,111
India,Maharashtra,Pune,"Savitribai Phule Pune University, Pune - MPCB",26-03-2025,18.547056,73.826908,SO2,2,7,5
India,Maharashtra,Solapur,"Ratandeep Housing Society, Solapur - MPCB",19-11-2025,17.65439,75.90649,CO,20,46,33
India,Maharashtra,Solapur,"Solapur, Solapur - MPCB",11-02-2025,17.6599188,75.9063906,NO2,54,55,55
India,Maharashtra,Pune,"Hadapsar, Pune - IITM",25-10-2025,18.501793,73.927532,CO,52,89,83
India,Maharashtra,Pune,"Hadapsar, Pune - IITM",18-08-2024,18.501793,73.927532,OZONE,1,128,17
India,Maharashtra,Solapur,"Ratandeep Housing Society, Solapur - MPCB",10-04-2025,17.65439,75.90649,NH3,3,9,5
India,Nagaland,Kohima,"PWD Juction, Kohima - NPCB",26-07-2025,25.6635413,94.0989878,NO2,3,5,3
India,Nagaland,Kohima,"PWD Juction, Kohima - NPCB",26-07-2024,25.6635413,94.0989878,NH3,1,1,1
India,Nagaland,Kohima,"PWD Juction, Kohima - NPCB",24-01-2025,25.6635413,94.0989878,OZONE,7,30,17
India,Odisha,Angul,"Hakimapada, Angul - OSPCB",18-05-2025,20.832874,85.104082,NO2,12,46,25
India,Odisha,Brajrajnagar,"GM Office, Brajrajnagar - OSPCB",04-04-2024,21.8004996,83.8396977,CO,32,62,44
India,Odisha,Byasanagar,"Ferro Chrome Colony, Byasanagar - OSPCB",27-03-2024,20.94185,86.1151,PM2.5,68,163,113
India,Odisha,Nayagarh,"Dabuna, Nayagarh - OSPCB",09-06-2024,21.847279,85.416905,CO,12,30,30
India,Odisha,Rourkela,"Fertilizer Township, Rourkela - OSPCB",11-09-2025,22.18972222,84.86277778,NO2,6,390,51
India,Odisha,Baripada,"Meher Colony, Baripada - OSPCB",23-05-2024,21.941841,86.728318,CO,92,123,101
India,Odisha,Bhubaneswar,"Lingraj Mandir, Bhubaneswar - OSPCB",17-03-2025,20.24079,85.836784,PM2.5,37,173,76
India,Odisha,Baripada,"Meher Colony, Baripada - OSPCB",11-03-2025,21.941841,86.728318,NH3,2,5,4
India,Odisha,Baripada,"Meher Colony, Baripada - OSPCB",28-03-2024,21.941841,86.728318,SO2,20,35,27
India,Odisha,Nayagarh,"Dabuna, Nayagarh - OSPCB",16-05-2024,21.847279,85.416905,PM2.5,57,91,72
India,Odisha,Nayagarh,"Dabuna, Nayagarh - OSPCB",20-02-2025,21.847279,85.416905,PM10,NA,NA,NA
India,Odisha,Bhubaneswar,"Lingraj Mandir, Bhubaneswar - OSPCB",27-09-2025,20.24079,85.836784,NH3,4,6,5
India,Odisha,Baripada,"Meher Colony, Baripada - OSPCB",28-09-2025,21.941841,86.728318,PM10,88,125,107
India,Odisha,Bileipada,"Tata Township, Bileipada - OSPCB",03-11-2024,22.06156703,85.47409613,NH3,NA,NA,NA
India,Punjab,Ludhiana,"Punjab Agricultural University, Ludhiana - PPCB",23-11-2025,30.9028,75.8086,OZONE,6,22,12
India,Punjab,Mandi Gobindgarh,"RIMT University, Mandi Gobindgarh - PPCB",15-08-2025,30.649961,76.331442,PM2.5,55,322,149
India,Punjab,Mandi Gobindgarh,"RIMT University, Mandi Gobindgarh - PPCB",16-05-2025,30.649961,76.331442,PM10,63,231,123
India,Puducherry,Puducherry,"Jawahar Nagar, Puducherry - PPCC",13-05-2024,11.9309,79.8027,CO,13,37,22
India,Punjab,Amritsar,"Golden Temple, Amritsar - PPCB",10-05-2024,31.62,74.876512,NH3,5,7,6
India,Odisha,Rourkela,"Fertilizer Township, Rourkela - OSPCB",21-05-2024,22.18972222,84.86277778,CO,2,40,25
India,Odisha,Rourkela,"Raghunathpali, Rourkela - OSPCB",16-07-2024,22.220833,84.809444,SO2,3,24,8
India,Punjab,Bathinda,"Hardev Nagar, Bathinda - PPCB",14-11-2024,30.233011,74.907758,NO2,NA,NA,NA
India,Punjab,Bathinda,"Hardev Nagar, Bathinda - PPCB",14-11-2025,30.233011,74.907758,SO2,NA,NA,NA
India,Punjab,Ludhiana,"Punjab Agricultural University, Ludhiana - PPCB",22-08-2024,30.9028,75.8086,SO2,7,29,15
India,Odisha,Tensa,"Barsua Iron Ore Mines, Tensa - OSPCB",15-05-2025,21.869985,85.167016,SO2,27,59,35
India,Punjab,Rupnagar,"Ratanpura, Rupnagar - Ambuja Cements",26-03-2025,31.0325454,76.5623046,SO2,5,8,7
India,Punjab,Patiala,"Model Town, Patiala - PPCB",14-03-2024,30.349388,76.366642,PM2.5,39,105,60
India,Odisha,Suakati,"OMC Colony, Suakati - OSPCB",23-11-2024,21.606865,85.510538,CO,4,52,35
India,Rajasthan,Bhiwadi,"Vasundhara Nagar_UIT, Bhiwadi - RSPCB",13-07-2024,28.207266,76.829265,CO,10,36,28
India,Rajasthan,Bikaner,"MM Ground, Bikaner - RSPCB",04-07-2025,28.018792,73.292658,PM2.5,32,234,71
India,Rajasthan,Bikaner,"MM Ground, Bikaner - RSPCB",15-10-2024,28.018792,73.292658,PM10,92,400,156
India,Rajasthan,Bundi,"New Colony, Bundi - RSPCB",27-05-2024,25.435774,75.644272,PM2.5,24,69,40
India,Rajasthan,Bundi,"New Colony, Bundi - RSPCB",10-02-2025,25.435774,75.644272,PM10,104,166,126
India,Rajasthan,Banswara,"Rati Talai, Banswara - RSPCB",02-10-2025,23.55519,74.44001,PM10,58,274,124
India,Rajasthan,Banswara,"Rati Talai, Banswara - RSPCB",04-02-2025,23.55519,74.44001,SO2,2,30,12
India,Rajasthan,Baran,"Bamboliya, Baran - RSPCB",02-05-2025,25.106006,76.469948,PM2.5,2,84,38
India,Rajasthan,Bhilwara,"Pratap Nagar, Bhilwara - RSPCB",06-02-2024,25.339605,74.618883,NO2,5,58,24
India,Rajasthan,Bhilwara,"Pratap Nagar, Bhilwara - RSPCB",22-07-2025,25.339605,74.618883,OZONE,8,81,36
India,Rajasthan,Bhiwadi,"RIICO Ind. Area III, Bhiwadi - RSPCB",11-04-2025,28.194909,76.862296,NH3,8,19,13
India,Rajasthan,Bhiwadi,"Vasundhara Nagar_UIT, Bhiwadi - RSPCB",11-04-2024,28.207266,76.829265,PM2.5,17,219,71
India,Rajasthan,Bharatpur,"Krishna Nagar, Bharatpur - RSPCB",01-03-2025,27.215415,77.50873,NO2,14,65,33
India,Rajasthan,Dausa,"Khatikan Mohalla, Dausa - RSPCB",17-06-2024,26.895552,76.334753,NO2,26,110,51
India,Rajasthan,Dungarpur,"Bhoiwada, Dungarpur - RSPCB",03-01-2024,23.837789,73.714926,PM10,65,156,92
India,Rajasthan,Jaipur,"Adarsh Nagar, Jaipur - RSPCB",24-12-2024,26.902909,75.836858,NO2,22,99,54
India,Rajasthan,Churu,"Subash Chowk, Churu - RSPCB",01-11-2024,28.296139,74.961696,NO2,6,30,13
India,Rajasthan,Jodhpur,"Mandor, Jodhpur - RSPCB",24-12-2025,26.358805,73.047444,OZONE,53,123,96
India,Rajasthan,Jodhpur,"Samrat Ashok Udhyan, Jodhpur - RSPCB",20-01-2025,26.253384,72.976571,SO2,1,27,10
India,Rajasthan,Karauli,"Satyawati Vihar, Karauli - RSPCB",07-08-2025,26.506177,77.025989,PM2.5,8,86,47
India,Rajasthan,Karauli,"Satyawati Vihar, Karauli - RSPCB",06-08-2024,26.506177,77.025989,PM10,73,190,122
India,Rajasthan,Karauli,"Satyawati Vihar, Karauli - RSPCB",17-01-2024,26.506177,77.025989,NO2,6,74,32
India,Rajasthan,Karauli,"Satyawati Vihar, Karauli - RSPCB",08-04-2025,26.506177,77.025989,SO2,10,24,16
India,Rajasthan,Kota,"Dhanmandi, Kota - RSPCB",21-10-2025,25.16409,75.858137,CO,13,34,20
India,Rajasthan,Jaipur,"Mansarovar Sector-12, Jaipur - RSPCB",26-11-2025,26.843698,75.766894,SO2,2,52,13
India,Rajasthan,Jaipur,"Police Commissionerate, Jaipur - RSPCB",23-10-2024,26.9164092,75.7994901,NH3,2,12,6
India,Rajasthan,Jaipur,"Police Commissionerate, Jaipur - RSPCB",28-10-2024,26.9164092,75.7994901,CO,24,72,38
India,Rajasthan,Jaipur,"Adarsh Nagar, Jaipur - RSPCB",03-05-2025,26.902909,75.836858,CO,8,75,28
India,Rajasthan,Jaipur,"Mansarovar Sector-12, Jaipur - RSPCB",01-08-2025,26.843698,75.766894,PM10,59,154,98
India,Rajasthan,Jalore,"Mudtra Sili, Jalore - RSPCB",01-08-2025,25.344694,72.626208,OZONE,8,117,60
India,Rajasthan,Jhalawar,"Rajlaxmi Nagar, Jhalawar - RSPCB",02-12-2024,24.588397,76.172782,PM2.5,31,146,73
India,Rajasthan,Jhunjhunu,"Indra Nagar, Jhunjhunu - RSPCB",02-10-2024,28.108988,75.386577,OZONE,34,149,70
India,Rajasthan,Jodhpur,"Digari Kalan, Jodhpur - RSPCB",10-02-2024,26.29581,73.082283,PM2.5,35,147,71
India,Rajasthan,Jaipur,"Sector-2 Murlipura, Jaipur - RSPCB",06-07-2024,26.960669,75.771817,CO,3,153,120
India,Rajasthan,Jaisalmer,"Sadar Bazar, Jaisalmer - RSPCB",27-11-2025,26.912329,70.909168,PM2.5,29,200,69
India,Rajasthan,Jaisalmer,"Sadar Bazar, Jaisalmer - RSPCB",03-02-2024,26.912329,70.909168,CO,12,99,18
India,Rajasthan,Jodhpur,"Jhalamand, Jodhpur - RSPCB",03-10-2024,26.215415,73.070156,NO2,8,91,37
India,Rajasthan,Rajsamand,"Dhoinda, Rajsamand - RSPCB",04-05-2024,25.03636,73.883502,NH3,7,33,18
India,Rajasthan,Rajsamand,"Dhoinda, Rajsamand - RSPCB",11-05-2025,25.03636,73.883502,CO,8,79,21
India,Rajasthan,Sawai Madhopur,"Sahu Nagar, Sawai Madhopur - RSPCB",03-06-2024,26.031443,76.359327,PM2.5,44,319,121
India,Rajasthan,Nagaur,"Karni Colony, Nagaur - RSPCB",12-09-2025,27.213494,73.734444,CO,16,43,25
India,Rajasthan,Nagaur,"Karni Colony, Nagaur - RSPCB",16-04-2024,27.213494,73.734444,OZONE,48,110,69
India,Rajasthan,Kota,"Shrinath Puram, Kota - RSPCB",08-01-2025,25.14389,75.821256,PM2.5,50,108,80
India,Rajasthan,Kota,"Shrinath Puram, Kota - RSPCB",26-07-2025,25.14389,75.821256,NO2,12,16,14
India,Rajasthan,Sawai Madhopur,"Sahu Nagar, Sawai Madhopur - RSPCB",08-05-2024,26.031443,76.359327,PM10,123,432,200
India,Rajasthan,Nagaur,"Karni Colony, Nagaur - RSPCB",23-01-2025,27.213494,73.734444,PM2.5,36,234,75
India,Rajasthan,Sikar,"Radhakishan Pura, Sikar - RSPCB",21-08-2025,27.608912,75.153302,CO,10,40,25
India,Rajasthan,Kota,"Shrinath Puram, Kota - RSPCB",08-08-2025,25.14389,75.821256,OZONE,32,132,60
India,Rajasthan,Nagaur,"Karni Colony, Nagaur - RSPCB",18-07-2025,27.213494,73.734444,NO2,8,35,16
India,Rajasthan,Nagaur,"Karni Colony, Nagaur - RSPCB",08-02-2024,27.213494,73.734444,SO2,4,40,11
India,TamilNadu,Chennai,"Alandur Bus Depot, Chennai - CPCB",13-03-2025,12.9099161,80.1076538,PM10,16,20,18
India,TamilNadu,Chennai,"Kodungaiyur, Chennai - TNPCB",16-11-2025,13.1278,80.2642,PM10,14,79,42
India,TamilNadu,Chennai,"Kodungaiyur, Chennai - TNPCB",24-11-2025,13.1278,80.2642,OZONE,7,33,10
India,TamilNadu,Chennai,"Manali Village, Chennai - TNPCB",28-08-2024,13.1662,80.2584,OZONE,31,38,36
India,Rajasthan,Sri Ganganagar,"Old City, Sri Ganganagar - RSPCB",06-06-2025,29.931624,73.864511,NO2,27,88,53
India,Rajasthan,Sri Ganganagar,"Old City, Sri Ganganagar - RSPCB",25-09-2024,29.931624,73.864511,NH3,4,5,5
India,Rajasthan,Tonk,"Shastri Nagar, Tonk - RSPCB",13-11-2025,26.159933,75.780517,PM2.5,32,120,58
India,TamilNadu,Chennai,"Velachery Res. Area, Chennai - CPCB",10-09-2025,13.0052189,80.2398125,NH3,4,5,5
India,TamilNadu,Coimbatore,"PSG College of Arts and Science, Coimbatore - TNPCB",26-02-2024,11.0328,77.0349,PM2.5,7,51,24
India,TamilNadu,Cuddalore,"Semmandalam, Cuddalore - TNPCB",22-09-2024,11.7637683,79.7499835,NH3,1,2,1
India,TamilNadu,Dindigul,"Mendonsa Colony, Dindigul - TNPCB",15-06-2024,10.358535,77.984321,PM10,NA,NA,NA
India,TamilNadu,Chennai,"Perungudi, Chennai - TNPCB",01-04-2025,12.9533,80.2357,CO,26,42,34
India,TamilNadu,Chennai,"Royapuram, Chennai - TNPCB",10-06-2024,13.1036,80.2909,PM10,12,65,33
India,TamilNadu,Coimbatore,"SIDCO Kurichi, Coimbatore - TNPCB",15-02-2024,10.942451,76.978996,PM10,6,56,28
India,TamilNadu,Coimbatore,"SIDCO Kurichi, Coimbatore - TNPCB",16-02-2024,10.942451,76.978996,OZONE,7,70,14
India,Sikkim,Gangtok,"Zero Point GICI, Gangtok - SSPCB",27-06-2024,27.33853,88.614099,OZONE,27,111,38
India,Rajasthan,Udaipur,"Ashok Nagar, Udaipur - RSPCB",28-01-2025,24.5886166,73.6321397,CO,5,113,28
India,TamilNadu,Cuddalore,"Kudikadu, Cuddalore - TNPCB",26-12-2025,11.6829898,79.7532099,NO2,NA,NA,NA
India,TamilNadu,Karur,"Kamadenu Nagar, Karur - TNPCB",14-08-2024,10.96782,78.080882,CO,10,47,18
India,TamilNadu,Karur,"Kamadenu Nagar, Karur - TNPCB",07-03-2025,10.96782,78.080882,OZONE,19,122,27
India,TamilNadu,Madurai,"Uchapatti, Madurai - TNPCB",21-05-2025,9.865935,78.022669,PM10,3,93,27
India,TamilNadu,Nagapattinam,"Velippalayam, Nagapattinam - TNPCB",25-06-2025,10.798548,79.838212,SO2,4,11,6
India,TamilNadu,Namakkal,"Ponnusamy Nagar, Namakkal - TNPCB",26-11-2024,11.273992,78.163545,NH3,2,2,2
India,TamilNadu,Hosur,"SIPCOT Phase-1, Hosur - TNPCB",21-09-2024,12.746998,77.813811,OZONE,10,56,42
India,TamilNadu,Kanchipuram,"Kilambi, Kanchipuram - TNPCB",11-02-2025,12.864618,79.659968,NO2,1,9,4
India,TamilNadu,Kanchipuram,"Kilambi, Kanchipuram - TNPCB",19-05-2025,12.864618,79.659968,CO,20,22,22
India,TamilNadu,Karur,"Kamadenu Nagar, Karur - TNPCB",07-09-2024,10.96782,78.080882,PM2.5,12,50,29
India,TamilNadu,Ooty,"Bombay Castel, Ooty - TNPCB",18-09-2025,11.4068288,76.7138973,OZONE,2,5,4
India,TamilNadu,Palkalaiperur,"Bharathidasan University, Palkalaiperur - TNPCB",28-01-2025,10.681158,78.741746,PM10,14,30,22
India,TamilNadu,Ooty,"Bombay Castel, Ooty - TNPCB",02-01-2025,11.4068288,76.7138973,PM2.5,7,70,39
India,TamilNadu,Ooty,"Bombay Castel, Ooty - TNPCB",19-11-2024,11.4068288,76.7138973,SO2,23,24,24
India,TamilNadu,Gummidipoondi,"Anthoni Pillai Nagar, Gummidipoondi - TNPCB",27-10-2025,13.4127,80.1081,PM2.5,7,150,34
India,TamilNadu,Palkalaiperur,"Bharathidasan University, Palkalaiperur - TNPCB",04-05-2025,10.681158,78.741746,NH3,3,3,3
India,TamilNadu,Perundurai,"SIPCOT Industrial Park, Perundurai - TNPCB",19-05-2024,11.258242,77.552761,PM2.5,NA,NA,NA
India,TamilNadu,Hosur,"SIPCOT Phase-1, Hosur - TNPCB",25-04-2025,12.746998,77.813811,SO2,47,51,49
India,TamilNadu,Hosur,"SIPCOT Phase-1, Hosur - TNPCB",11-07-2025,12.746998,77.813811,NO2,1,2,2
India,TamilNadu,Pudukottai,"SIPCOT Nathampannai, Pudukottai - TNPCB",24-07-2025,10.423417,78.784889,NO2,13,19,16
India,TamilNadu,Ramanathapuram,"Chalai Bazaar, Ramanathapuram - TNPCB",05-11-2024,9.36399,78.831977,NO2,5,5,5
India,TamilNadu,Ranipet,"VOC Nagar_SIPCOT, Ranipet - TNPCB",22-11-2024,12.952707,79.30394,PM2.5,15,68,47
India,TamilNadu,Thanjavur,"Parisutham Nagar, Thanjavur - TNPCB",25-09-2024,10.7654824,79.1389968,NO2,4,5,4
India,TamilNadu,Thoothukudi,"Meelavittan, Thoothukudi - TNPCB",20-06-2024,8.816428,78.099039,OZONE,15,18,17
India,TamilNadu,Virudhunagar,"Collectorate Office, Virudhunagar - TNPCB",13-08-2025,9.559382,77.948828,NO2,19,19,19
India,TamilNadu,Virudhunagar,"Collectorate Office, Virudhunagar - TNPCB",25-08-2024,9.559382,77.948828,NH3,7,7,7
India,TamilNadu,Virudhunagar,"Collectorate Office, Virudhunagar - TNPCB",13-11-2024,9.559382,77.948828,SO2,18,19,18
India,TamilNadu,Vellore,"Vasanthapuram, Vellore - TNPCB",25-10-2024,12.909494,79.131861,NO2,1,14,7
India,TamilNadu,Vellore,"Vasanthapuram, Vellore - TNPCB",27-03-2025,12.909494,79.131861,CO,14,16,15
India,TamilNadu,Perundurai,"SIPCOT Industrial Park, Perundurai - TNPCB",19-06-2025,11.258242,77.552761,CO,NA,NA,NA
India,TamilNadu,Perundurai,"SIPCOT Industrial Park, Perundurai - TNPCB",20-10-2025,11.258242,77.552761,OZONE,NA,NA,NA
India,TamilNadu,Tirunelveli,"Municipal Corporation Office, Tirunelveli - TNPCB",23-04-2025,8.728442,77.6962,CO,29,30,29
India,TamilNadu,Salem,"Sona College of Technology, Salem - TNPCB",13-06-2025,11.679111,78.125052,NH3,NA,NA,NA
India,TamilNadu,Tirupur,"Kumaran College, Tirupur - TNPCB",12-12-2025,11.0973603,77.3228673,PM2.5,NA,NA,NA
India,TamilNadu,Vellore,"Vasanthapuram, Vellore - TNPCB",28-09-2025,12.909494,79.131861,PM2.5,22,57,43
India,Telangana,Hyderabad,"Nacharam_TSIIC IALA, Hyderabad - TSPCB",12-06-2025,17.429398,78.569354,NO2,12,17,13
India,Telangana,Hyderabad,"Nacharam_TSIIC IALA, Hyderabad - TSPCB",13-06-2025,17.429398,78.569354,SO2,6,17,12
India,Telangana,Hyderabad,"New Malakpet, Hyderabad - TSPCB",10-05-2025,17.37206,78.50864,PM2.5,26,100,58
India,Telangana,Hyderabad,"New Malakpet, Hyderabad - TSPCB",20-08-2025,17.37206,78.50864,OZONE,3,36,10
India,Telangana,Hyderabad,"Ramachandrapuram, Hyderabad - TSPCB",17-05-2024,17.528544,78.286195,PM10,NA,NA,NA
India,Telangana,Hyderabad,"Ramachandrapuram, Hyderabad - TSPCB",14-08-2024,17.528544,78.286195,NO2,NA,NA,NA
India,Telangana,Hyderabad,"Ramachandrapuram, Hyderabad - TSPCB",19-04-2024,17.528544,78.286195,SO2,NA,NA,NA
India,Telangana,Hyderabad,"Zoo Park, Hyderabad - TSPCB",25-09-2025,17.349694,78.451437,OZONE,22,24,23
India,Tripura,Agartala,"Bardowali, Agartala - Tripura SPCB",16-06-2025,23.8175497,91.2726974,SO2,21,21,21
India,Tripura,Agartala,"Bardowali, Agartala - Tripura SPCB",08-08-2024,23.8175497,91.2726974,CO,10,34,13
India,Uttar_Pradesh,Agra,"Manoharpur, Agra - UPPCB",20-06-2024,27.23711,78.01936,NH3,1,2,1
India,Telangana,Hyderabad,"IITH Kandi, Hyderabad - TSPCB",06-11-2025,17.585705,78.126199,SO2,8,12,9
India,Telangana,Hyderabad,"Kokapet, Hyderabad - TSPCB",18-03-2025,17.393559,78.339194,PM2.5,NA,NA,NA
India,Telangana,Hyderabad,"Kokapet, Hyderabad - TSPCB",08-03-2024,17.393559,78.339194,NH3,NA,NA,NA
India,Telangana,Hyderabad,"Kokapet, Hyderabad - TSPCB",26-08-2025,17.393559,78.339194,CO,NA,NA,NA
India,Telangana,Hyderabad,"Kompally Municipal Office, Hyderabad - TSPCB",01-11-2024,17.544899,78.486949,PM2.5,56,60,59
India,Telangana,Hyderabad,"Central University, Hyderabad - TSPCB",28-03-2024,17.460103,78.334361,SO2,1,10,5
India,Telangana,Hyderabad,"ECIL Kapra, Hyderabad - TSPCB",11-08-2025,17.470431,78.566959,PM10,NA,NA,NA
India,Uttar_Pradesh,Agra,"Sanjay Palace, Agra - UPPCB",06-06-2024,27.19865833,78.00598056,PM10,87,218,151
India,Uttar_Pradesh,Agra,"Shahjahan Garden, Agra - UPPCB",23-10-2025,27.169338,78.03582,PM10,49,179,106
India,Telangana,Hyderabad,"IDA Pashamylaram, Hyderabad - TSPCB",06-12-2025,17.5316895,78.218939,CO,28,48,35
India,Telangana,Hyderabad,"IDA Pashamylaram, Hyderabad - TSPCB",24-03-2025,17.5316895,78.218939,OZONE,7,22,9
India,Telangana,Hyderabad,"Sanathnagar, Hyderabad - TSPCB",06-05-2025,17.4559458,78.4332152,NO2,19,28,25
India,Telangana,Hyderabad,"Sanathnagar, Hyderabad - TSPCB",20-10-2025,17.4559458,78.4332152,CO,5,72,29
India,Telangana,Hyderabad,"Central University, Hyderabad - TSPCB",06-08-2025,17.460103,78.334361,NO2,3,36,17
India,Telangana,Hyderabad,"ECIL Kapra, Hyderabad - TSPCB",21-11-2024,17.470431,78.566959,NH3,NA,NA,NA
India,Uttar_Pradesh,Ghaziabad,"Vasundhara, Ghaziabad - UPPCB",11-07-2024,28.6603346,77.3572563,NO2,24,92,50
India,Uttar_Pradesh,Ghaziabad,"Vasundhara, Ghaziabad - UPPCB",28-12-2025,28.6603346,77.3572563,NH3,5,15,8
India,Uttar_Pradesh,Ghaziabad,"Vasundhara, Ghaziabad - UPPCB",03-05-2024,28.6603346,77.3572563,CO,8,78,33
India,Uttar_Pradesh,Gorakhpur,"Madan Mohan Malaviya University of Technology, Gorakhpur - UPPCB",07-10-2024,26.730136,83.433859,PM10,102,178,145
India,Uttar_Pradesh,Gorakhpur,"Madan Mohan Malaviya University of Technology, Gorakhpur - UPPCB",10-04-2024,26.730136,83.433859,CO,7,10,10
India,Uttar_Pradesh,Ghaziabad,"Loni, Ghaziabad - UPPCB",18-10-2025,28.757294,77.278792,SO2,NA,NA,NA
India,Uttar_Pradesh,Ghaziabad,"Sanjay Nagar, Ghaziabad - UPPCB",10-11-2024,28.685382,77.453839,PM10,125,221,166
India,Uttar_Pradesh,Ghaziabad,"Sanjay Nagar, Ghaziabad - UPPCB",02-06-2025,28.685382,77.453839,NO2,19,75,37
India,Uttar_Pradesh,Baghpat,"Sardar Patel Inter College, Baghpat - UPPCB",28-04-2025,28.964949,77.278761,CO,25,135,95
India,Uttar_Pradesh,Baghpat,"Sardar Patel Inter College, Baghpat - UPPCB",20-05-2024,28.964949,77.278761,OZONE,19,63,29
India,Uttar_Pradesh,Bulandshahr,"Yamunapuram, Bulandshahr - UPPCB",10-03-2025,28.406963,77.849831,PM2.5,38,177,99
India,Uttar_Pradesh,Bulandshahr,"Yamunapuram, Bulandshahr - UPPCB",09-05-2024,28.406963,77.849831,NH3,8,17,10
India,Uttar_Pradesh,Bareilly,"Civil Lines, Bareilly - UPPCB",27-06-2024,28.359581,79.414455,OZONE,15,19,15
India,Uttar_Pradesh,Firozabad,"Vibhab Nagar, Firozabad - UPPCB",27-07-2024,27.1594,78.3953,PM2.5,33,308,93
India,Uttar_Pradesh,Ghaziabad,"Indirapuram, Ghaziabad - UPPCB",24-03-2024,28.646233,77.358075,SO2,2,64,14
India,Uttar_Pradesh,Firozabad,"Vibhab Nagar, Firozabad - UPPCB",02-06-2025,27.1594,78.3953,NO2,15,15,15
India,Uttar_Pradesh,Meerut,"Ganga Nagar, Meerut - UPPCB",23-06-2025,28.999264,77.7590354,SO2,11,31,19
India,Uttar_Pradesh,Meerut,"Jai Bhim Nagar, Meerut - UPPCB",02-11-2025,28.9535882,77.7622941,NH3,6,78,13
India,Uttar_Pradesh,Meerut,"Jai Bhim Nagar, Meerut - UPPCB",22-07-2025,28.9535882,77.7622941,CO,14,44,28
India,Uttar_Pradesh,Meerut,"Jai Bhim Nagar, Meerut - UPPCB",09-11-2024,28.9535882,77.7622941,OZONE,37,97,53
India,Uttar_Pradesh,Meerut,"Pallavpuram Phase 2, Meerut - UPPCB",01-08-2024,29.06351,77.709723,NH3,11,17,13
India,Uttar_Pradesh,Meerut,"Pallavpuram Phase 2, Meerut - UPPCB",08-05-2024,29.06351,77.709723,CO,12,73,31
India,Uttar_Pradesh,Moradabad,"Buddhi Vihar, Moradabad - UPPCB",01-11-2025,28.83526,78.7446,SO2,17,20,18
India,Uttar_Pradesh,Moradabad,"Buddhi Vihar, Moradabad - UPPCB",05-08-2024,28.83526,78.7446,OZONE,14,46,17
India,Uttar_Pradesh,Kanpur,"FTI Kidwai Nagar, Kanpur - UPPCB",28-05-2024,26.428282,80.327067,SO2,31,38,34
India,Uttar_Pradesh,Kanpur,"NSI Kalyanpur, Kanpur - UPPCB",26-09-2024,26.509954,80.249612,PM2.5,19,88,49
India,Uttar_Pradesh,Kanpur,"Nehru Nagar, Kanpur - UPPCB",07-07-2025,26.4703136,80.3229863,CO,28,55,48
India,Uttar_Pradesh,Khurja,"Kalindi Kunj, Khurja - UPPCB",12-09-2025,28.2348927,77.8683002,SO2,NA,NA,NA
India,Uttar_Pradesh,Lucknow,"B R Ambedkar University, Lucknow - UPPCB",06-05-2025,26.766433,80.927299,PM10,73,147,119
India,Uttar_Pradesh,Lucknow,"Gomti Nagar, Lucknow - UPPCB",28-11-2024,26.86812,81.005119,SO2,9,12,10
India,Uttar_Pradesh,Lucknow,"Gomti Nagar, Lucknow - UPPCB",08-12-2025,26.86812,81.005119,CO,36,44,39
India,Uttar_Pradesh,Lucknow,"Lalbagh, Lucknow - CPCB",22-02-2025,26.8458805,80.9365541,NH3,10,25,17
India,Uttar_Pradesh,Lucknow,"Lalbagh, Lucknow - CPCB",18-04-2025,26.8458805,80.9365541,OZONE,NA,NA,NA
India,Uttar_Pradesh,Lucknow,"Talkatora District Industries Center, Lucknow - CPCB",14-02-2024,26.83399722,80.8917361,NH3,9,18,12
India,Uttar_Pradesh,Lucknow,"Kendriya Vidyalaya, Lucknow - CPCB",14-08-2025,26.906111,80.948222,OZONE,6,46,12
India,Uttar_Pradesh,Lucknow,"Kukrail Picnic Spot-1, Lucknow - UPPCB",16-05-2025,26.90723,80.98579,NO2,23,23,23
India,Uttar_Pradesh,Jhansi,"Shivaji Nagar, Jhansi - UPPCB",25-05-2024,25.4547,78.6039,NH3,4,4,4
India,Uttar_Pradesh,Jhansi,"Shivaji Nagar, Jhansi - UPPCB",17-01-2025,25.4547,78.6039,SO2,47,77,55
India,Uttar_Pradesh,Greater Noida,"Knowledge Park - III, Greater Noida - UPPCB",25-05-2024,28.47272,77.482,OZONE,12,100,33
India,Uttar_Pradesh,Lucknow,"Kendriya Vidyalaya, Lucknow - CPCB",26-02-2024,26.906111,80.948222,NO2,35,49,41
India,Uttar_Pradesh,Kanpur,"FTI Kidwai Nagar, Kanpur - UPPCB",22-02-2024,26.428282,80.327067,NO2,17,22,18
India,Uttar_Pradesh,Varanasi,"Ardhali Bazar, Varanasi - UPPCB",04-10-2024,25.3505986,82.9083074,OZONE,27,31,29
India,Uttar_Pradesh,Varanasi,"Bhelupur, Varanasi - UPPCB",01-12-2024,25.301778,82.996789,PM10,67,231,116
India,Uttar_Pradesh,Varanasi,"Bhelupur, Varanasi - UPPCB",17-11-2025,25.301778,82.996789,NO2,7,8,8
India,Uttar_Pradesh,Varanasi,"Bhelupur, Varanasi - UPPCB",04-12-2024,25.301778,82.996789,SO2,27,32,30
India,Uttar_Pradesh,Varanasi,"IESD Banaras Hindu University, Varanasi - UPPCB",10-12-2024,25.262326,82.995408,NO2,2,2,2
India,Uttar_Pradesh,Noida,"Sector-1, Noida - UPPCB",06-07-2024,28.5898,77.3101,OZONE,22,164,44
India,Uttar_Pradesh,Prayagraj,"Jhunsi, Prayagraj - UPPCB",20-03-2025,25.425602,81.917152,CO,8,104,40
India,Uttar_Pradesh,Prayagraj,"Jhunsi, Prayagraj - UPPCB",21-03-2025,25.425602,81.917152,OZONE,4,59,10
India,Uttar_Pradesh,Prayagraj,"Motilal Nehru NIT, Prayagraj - UPPCB",26-08-2024,25.494,81.863,NO2,11,12,12
India,Uttar_Pradesh,Prayagraj,"Motilal Nehru NIT, Prayagraj - UPPCB",21-08-2024,25.494,81.863,SO2,18,24,20
India,Uttar_Pradesh,Varanasi,"Maldahiya, Varanasi - UPPCB",03-06-2024,25.32393,82.99687,NO2,2,6,2
India,Uttar_Pradesh,Varanasi,"Maldahiya, Varanasi - UPPCB",25-10-2025,25.32393,82.99687,OZONE,1,38,7
India,Uttar_Pradesh,Vrindavan,"Omex Eternity, Vrindavan - UPPCB",18-06-2025,27.571409,77.655757,PM10,15,146,68
India,Uttarakhand,Dehradun,"Doon University, Dehradun - UKPCB",19-10-2025,30.269444,78.044167,OZONE,51,122,64
India,Uttarakhand,Kashipur,"Govt. Girls Inter College, Kashipur - UKPCB",09-09-2025,29.2124114,78.9611753,PM10,57,120,89
India,Uttar_Pradesh,Prayagraj,"Nagar Nigam, Prayagraj - UPPCB",19-08-2024,25.44919916,81.82735986,CO,6,71,21
India,Uttar_Pradesh,Prayagraj,"Nagar Nigam, Prayagraj - UPPCB",09-03-2024,25.44919916,81.82735986,OZONE,11,12,11
India,Uttar_Pradesh,Moradabad,"Employment Office, Moradabad - UPPCB",28-09-2024,28.88528,78.7388,NO2,12,16,16
India,Uttar_Pradesh,Moradabad,"Employment Office, Moradabad - UPPCB",13-02-2024,28.88528,78.7388,OZONE,10,53,14
India,Uttar_Pradesh,Muzaffarnagar,"New Mandi, Muzaffarnagar - UPPCB",27-12-2025,29.4723508,77.7194031,PM10,64,110,85
India,Uttar_Pradesh,Moradabad,"Jigar Colony, Moradabad - UPPCB",05-03-2025,28.856664,78.772638,PM10,60,113,82
India,Uttar_Pradesh,Moradabad,"Kashiram Nagar, Moradabad - UPPCB",23-04-2024,28.849399,78.742362,NH3,4,4,4
India,West_Bengal,Asansol,"Mahabir Colliery, Asansol - WBPCB",17-08-2025,23.618183,87.105718,PM2.5,50,180,91
India,West_Bengal,Asansol,"Mahabir Colliery, Asansol - WBPCB",28-07-2024,23.618183,87.105718,SO2,18,104,37
India,West_Bengal,Asansol,"Trivenidevi Bhalotia College, Asansol - WBPCB",09-05-2025,23.616515,87.119133,PM2.5,74,207,114
India,West_Bengal,Asansol,"Trivenidevi Bhalotia College, Asansol - WBPCB",27-02-2024,23.616515,87.119133,NO2,15,52,28
India,West_Bengal,Asansol,"Trivenidevi Bhalotia College, Asansol - WBPCB",08-06-2024,23.616515,87.119133,SO2,24,91,39
India,West_Bengal,Asansol,"Trivenidevi Bhalotia College, Asansol - WBPCB",14-02-2025,23.616515,87.119133,CO,38,101,65
India,Uttarakhand,Kashipur,"Govt. Girls Inter College, Kashipur - UKPCB",16-11-2025,29.2124114,78.9611753,CO,14,49,28
India,Uttarakhand,Rishikesh,"Shivaji Nagar, Rishikesh - UKPCB",25-07-2025,30.075911,78.2859547,SO2,3,5,4
India,Uttarakhand,Rishikesh,"Shivaji Nagar, Rishikesh - UKPCB",28-08-2025,30.075911,78.2859547,CO,10,32,22
India,Uttarakhand,Rishikesh,"Shivaji Nagar, Rishikesh - UKPCB",23-09-2025,30.075911,78.2859547,OZONE,14,110,27
India,West_Bengal,Howrah,"Padmapukur, Howrah - WBPCB",15-08-2025,22.5687319,88.2797276,NO2,12,55,22
India,West_Bengal,Howrah,"Padmapukur, Howrah - WBPCB",26-10-2025,22.5687319,88.2797276,CO,12,102,27
India,West_Bengal,Kolkata,"Ballygunge, Kolkata - WBPCB",14-10-2024,22.5367507,88.3638022,PM10,55,137,97
India,West_Bengal,Kolkata,"Ballygunge, Kolkata - WBPCB",10-10-2025,22.5367507,88.3638022,CO,24,101,28
India,West_Bengal,Kolkata,"Ballygunge, Kolkata - WBPCB",27-01-2025,22.5367507,88.3638022,OZONE,12,51,21
India,West_Bengal,Howrah,"Belur Math, Howrah - WBPCB",27-08-2025,22.629801,88.352017,PM2.5,36,105,67
India,West_Bengal,Howrah,"Botanical Garden, Howrah - WBPCB",02-04-2024,22.554954,88.292568,NO2,10,24,15
India,West_Bengal,Howrah,"Botanical Garden, Howrah - WBPCB",07-07-2024,22.554954,88.292568,SO2,4,10,5
India,West_Bengal,Howrah,"Botanical Garden, Howrah - WBPCB",26-12-2024,22.554954,88.292568,CO,29,51,31
India,West_Bengal,Durgapur,"PCBL Residential Complex, Durgapur - WBPCB",14-11-2025,23.508764,87.35444,PM10,111,254,162
India,West_Bengal,Asansol,"Asansol Court Area, Asansol - WBPCB",03-07-2024,23.685297,86.945968,OZONE,32,93,46
India,West_Bengal,Howrah,"Dasnagar, Howrah - WBPCB",14-07-2025,22.6025571,88.3105664,NO2,18,115,39
India,West_Bengal,Howrah,"Dasnagar, Howrah - WBPCB",04-11-2024,22.6025571,88.3105664,CO,24,96,26
India,West_Bengal,Kolkata,"Rabindra Sarobar, Kolkata - WBPCB",11-06-2025,22.51106,88.35142,PM2.5,33,64,50
India,West_Bengal,Kolkata,"Rabindra Sarobar, Kolkata - WBPCB",27-04-2024,22.51106,88.35142,SO2,4,39,16
India,West_Bengal,Siliguri,"Ward-32 Bapupara, Siliguri - WBPCB",12-02-2024,26.6879226,88.4152495,PM2.5,130,254,208
India,West_Bengal,Siliguri,"Ward-32 Bapupara, Siliguri - WBPCB",14-05-2024,26.6879226,88.4152495,OZONE,19,59,37
India,Andhra_Pradesh,Vijayawada,"Rajiv Gandhi Park, Vijayawada - APPCB",11-01-2024,16.509717,80.612222,PM2.5,67,91,81
India,Andhra_Pradesh,Vijayawada,"Rajiv Gandhi Park, Vijayawada - APPCB",04-11-2024,16.509717,80.612222,CO,30,38,35
India,Andhra_Pradesh,Vijayawada,"Rajiv Nagar, Vijayawada - APPCB",10-10-2024,16.554731,80.64911,SO2,1,104,30
India,Andhra_Pradesh,Vijayawada,"Rajiv Nagar, Vijayawada - APPCB",14-03-2025,16.554731,80.64911,CO,48,74,60
India,Andhra_Pradesh,Visakhapatnam,"GVM Corporation, Visakhapatnam - APPCB",17-05-2024,17.72,83.3,CO,8,42,21
India,Andhra_Pradesh,Visakhapatnam,"GVM Corporation, Visakhapatnam - APPCB",11-11-2025,17.72,83.3,OZONE,9,16,10
India,Arunachal_Pradesh,Naharlagun,"Naharlagun, Naharlagun - APSPCB",17-09-2025,27.103358,93.679645,PM2.5,61,180,96
India,Andaman and Nicobar,Sri Vijaya Puram,"Police Line, Sri Vijaya Puram - ANPCC",26-01-2024,11.654054,92.734055,NO2,8,43,23
India,Andaman and Nicobar,Sri Vijaya Puram,"Police Line, Sri Vijaya Puram - ANPCC",27-05-2025,11.654054,92.734055,OZONE,3,31,11
India,Andhra_Pradesh,Amaravati,"Secretariat, Amaravati - APPCB",14-07-2024,16.5150833,80.5181667,SO2,14,32,16
India,Andhra_Pradesh,Anantapur,"Gulzarpet, Anantapur - APPCB",24-09-2024,14.675886,77.593027,CO,2,20,3
India,Andhra_Pradesh,Anantapur,"Gulzarpet, Anantapur - APPCB",03-03-2025,14.675886,77.593027,OZONE,1,10,3
India,Andhra_Pradesh,Chittoor,"Gangineni Cheruvu, Chittoor - APPCB",05-05-2024,13.20488,79.097889,PM2.5,36,202,88
India,Andhra_Pradesh,Rajamahendravaram,"Anand Kala Kshetram, Rajamahendravaram - APPCB",05-03-2024,16.9872867,81.7363176,CO,10,79,34
India,Andhra_Pradesh,Rajamahendravaram,"Anand Kala Kshetram, Rajamahendravaram - APPCB",09-07-2024,16.9872867,81.7363176,OZONE,6,7,6
India,Andhra_Pradesh,Tirumala,"Toll Gate, Tirumala - APPCB (Formerly known as Tirumala, Tirupati - APPCB)",28-06-2024,13.67,79.35,SO2,1,18,8
India,Andhra_Pradesh,Tirupati,"Vaikuntapuram, Tirupati - APPCB",20-10-2024,13.615387,79.40923,PM2.5,NA,NA,NA
India,Andhra_Pradesh,Tirupati,"Vaikuntapuram, Tirupati - APPCB",12-08-2025,13.615387,79.40923,NH3,NA,NA,NA
India,Andhra_Pradesh,Tirupati,"Vaikuntapuram, Tirupati - APPCB",12-09-2025,13.615387,79.40923,SO2,NA,NA,NA
India,Bihar,Bettiah,"Kamalnath Nagar, Bettiah - BSPCB",22-08-2024,26.80365,84.51954,PM2.5,25,92,51
India,Bihar,Bettiah,"Kamalnath Nagar, Bettiah - BSPCB",11-06-2025,26.80365,84.51954,NO2,28,30,28
India,Bihar,Bettiah,"Kamalnath Nagar, Bettiah - BSPCB",22-08-2024,26.80365,84.51954,OZONE,22,29,25
India,Bihar,Bhagalpur,"DM Office_Kachari Chowk, Bhagalpur - BSPCB",18-06-2025,25.251013,86.989001,SO2,23,47,35
India,Bihar,Bhagalpur,"DM Office_Kachari Chowk, Bhagalpur - BSPCB",27-11-2024,25.251013,86.989001,OZONE,14,29,18
India,Bihar,Bihar Sharif,"D M Colony, Bihar Sharif - BSPCB",20-02-2025,25.204762,85.51496,NO2,9,10,9
India,Assam,Guwahati,"Railway Colony, Guwahati - PCBA",04-02-2025,26.181742,91.78063,OZONE,3,111,37
India,Assam,Nagaon,"Christianpatty, Nagaon - PCBA",16-08-2025,26.349082,92.68449,PM2.5,62,210,146
India,Assam,Nalbari,"Bata Chowk, Nalbari - PCBA",04-08-2025,26.446912,91.439057,CO,16,48,28
India,Assam,Nalbari,"Bata Chowk, Nalbari - PCBA",05-03-2025,26.446912,91.439057,OZONE,4,20,16
India,Assam,Silchar,"Tarapur, Silchar - PCBA",06-12-2024,24.82827,92.79525,NO2,14,17,16
India,Assam,Sivasagar,"Girls College, Sivasagar - PCBA",16-10-2024,26.987634,94.636574,NO2,23,44,34
India,Bihar,Araria,"Kharahiya Basti, Araria - BSPCB",16-09-2024,26.146529,87.454184,SO2,25,37,32
India,Bihar,Arrah,"New DM Office, Arrah - BSPCB",02-03-2025,25.5626095,84.663264,NH3,1,1,1
India,Bihar,Aurangabad,"Gurdeo Nagar, Aurangabad - BSPCB",15-03-2025,24.75746,84.366208,PM10,31,427,161
India,Assam,Byrnihat,"Central Academy for SFS, Byrnihat - PCBA",12-01-2025,26.071318,91.87488,NH3,4,4,4
India,Assam,Byrnihat,"Central Academy for SFS, Byrnihat - PCBA",23-09-2025,26.071318,91.87488,SO2,20,30,29
India,Assam,Byrnihat,"Central Academy for SFS, Byrnihat - PCBA",02-12-2025,26.071318,91.87488,CO,40,63,49
India,Assam,Guwahati,"IITG, Guwahati - PCBA",06-02-2024,26.2028636,91.70046436,PM10,139,458,213
India,Andhra_Pradesh,Kadapa,"Yerramukkapalli, Kadapa - APPCB",05-01-2025,14.465052,78.824187,CO,38,42,41
India,Andhra_Pradesh,Rajamahendravaram,"Anand Kala Kshetram, Rajamahendravaram - APPCB",05-11-2024,16.9872867,81.7363176,PM10,16,105,56
India,Andhra_Pradesh,Vijayawada,"HB Colony, Vijayawada - APPCB",20-12-2024,16.536107,80.594233,SO2,5,10,7
India,Andhra_Pradesh,Vijayawada,"Kanuru, Vijayawada - APPCB",16-05-2025,16.486692,80.699436,NH3,4,6,5
India,Andhra_Pradesh,Vijayawada,"Kanuru, Vijayawada - APPCB",03-07-2024,16.486692,80.699436,CO,10,26,17
India,Assam,Guwahati,"LGBI Airport, Guwahati - PCBA",20-08-2024,26.10887,91.589544,NH3,16,21,17
India,Assam,Guwahati,"LGBI Airport, Guwahati - PCBA",09-12-2024,26.10887,91.589544,CO,2,35,29
India,Bihar,Katihar,"Mirchaibari, Katihar - BSPCB",13-11-2025,25.560083,87.553265,NH3,1,1,1
India,Bihar,Kishanganj,"SDM Office_Khagra, Kishanganj - BSPCB",17-12-2025,26.0881305,87.93840336,NH3,10,10,10
India,Bihar,Kishanganj,"SDM Office_Khagra, Kishanganj - BSPCB",08-09-2025,26.0881305,87.93840336,OZONE,18,21,19
India,Bihar,Manguraha,"Forest Rest House, Manguraha - BSPCB",27-10-2025,27.308328,84.531742,PM2.5,NA,NA,NA
India,Bihar,Manguraha,"Forest Rest House, Manguraha - BSPCB",02-08-2025,27.308328,84.531742,SO2,6,7,6
India,Bihar,Motihari,"Gandak Colony, Motihari - BSPCB",23-11-2025,26.63086,84.90051,PM2.5,NA,NA,NA
India,Bihar,Motihari,"Gandak Colony, Motihari - BSPCB",09-01-2025,26.63086,84.90051,PM10,31,405,90
India,Bihar,Motihari,"Gandak Colony, Motihari - BSPCB",09-09-2024,26.63086,84.90051,NH3,3,3,3
India,Bihar,Munger,"Town Hall, Munger - BSPCB",26-06-2025,25.376776,86.471523,SO2,12,28,17
India,Bihar,Muzaffarpur,"Buddha Colony, Muzaffarpur - BSPCB",11-01-2025,26.11442,85.39813,PM10,87,306,145
India,Bihar,Muzaffarpur,"Buddha Colony, Muzaffarpur - BSPCB",21-08-2025,26.11442,85.39813,NH3,10,14,12
India,Bihar,Patna,"DRM Office Danapur, Patna - BSPCB",23-06-2024,25.586562,85.043586,OZONE,1,33,11
India,Bihar,Patna,"Govt. High School Shikarpur, Patna - BSPCB",27-09-2024,25.592539,85.227158,PM2.5,67,156,99
India,Bihar,Hajipur,"Industrial Area, Hajipur - BSPCB",06-01-2024,25.697189,85.2459,OZONE,31,156,68
India,Bihar,Katihar,"Mirchaibari, Katihar - BSPCB",18-07-2025,25.560083,87.553265,PM2.5,42,95,61
India,Bihar,Muzaffarpur,"Muzaffarpur Collectorate, Muzaffarpur - BSPCB",22-01-2025,26.1209,85.3647,PM2.5,23,47,33
India,Bihar,Muzaffarpur,"Muzaffarpur Collectorate, Muzaffarpur - BSPCB",08-11-2024,26.1209,85.3647,NO2,7,15,11
India,Bihar,Muzaffarpur,"Buddha Colony, Muzaffarpur - BSPCB",26-06-2025,26.11442,85.39813,OZONE,1,90,21
India,Bihar,Buxar,"Charitra Van, Buxar - BSPCB",17-01-2024,25.56752,83.966379,OZONE,50,171,81
India,Bihar,Patna,"DRM Office Danapur, Patna - BSPCB",26-10-2025,25.586562,85.043586,NH3,2,3,3
India,Bihar,Gaya,"SFTI Kusdihra, Gaya - BSPCB",04-12-2024,24.762518,84.982348,OZONE,25,61,30
India,Chhattisgarh,Bhilai,"32Bungalows, Bhilai - CECB",22-04-2025,21.194815,81.31477,NH3,3,5,4
India,Chhattisgarh,Bhilai,"32Bungalows, Bhilai - CECB",02-06-2024,21.194815,81.31477,OZONE,20,33,24
India,Chhattisgarh,Bhilai,"Civic Center, Bhilai - Bhilai Steel Plant",04-05-2024,21.185571,81.343175,PM10,28,44,34
India,Chhattisgarh,Bhilai,"Civic Center, Bhilai - Bhilai Steel Plant",02-09-2025,21.185571,81.343175,NH3,2,2,2
India,Chhattisgarh,Bhilai,"Hathkhoj, Bhilai - CECB",05-03-2025,21.224231,81.40835,OZONE,34,34,34
India,Chhattisgarh,Bilaspur,"Mangala, Bilaspur - NTPC",04-02-2025,22.08815,82.13737,PM10,48,134,76
India,Chhattisgarh,Bilaspur,"Mangala, Bilaspur - NTPC",04-08-2024,22.08815,82.13737,CO,6,74,25
India,Bihar,Siwan,"Chitragupta Nagar, Siwan - BSPCB",10-11-2025,26.2271665,84.3570427,OZONE,17,102,50
India,Chandigarh,Chandigarh,"Sector-25, Chandigarh - CPCC",27-01-2025,30.751462,76.762879,SO2,3,16,7
India,Bihar,Patna,"Rajbansi Nagar, Patna - BSPCB",06-01-2024,25.599486,85.113666,PM10,92,126,111
India,Bihar,Patna,"Rajbansi Nagar, Patna - BSPCB",28-01-2025,25.599486,85.113666,NO2,16,63,31
India,Bihar,Patna,"Rajbansi Nagar, Patna - BSPCB",01-09-2025,25.599486,85.113666,OZONE,13,132,50
India,Bihar,Saharsa,"Police Line, Saharsa - BSPCB",04-01-2025,25.892357,86.590325,OZONE,1,44,22
India,Bihar,Sasaram,"Dada Peer, Sasaram - BSPCB",25-06-2024,24.952822,84.002396,NO2,2,2,2
India,Bihar,Patna,"IGSC Planetarium Complex, Patna - BSPCB",06-08-2024,25.610369,85.132568,PM2.5,NA,NA,NA
India,Chandigarh,Chandigarh,"Sector-53, Chandigarh - CPCC",13-04-2024,30.719859,76.738637,NO2,17,45,26
India,Bihar,Rajgir,"Dangi Tola, Rajgir - BSPCB",27-10-2024,25.0328,85.41948,PM2.5,NA,NA,NA
India,Bihar,Patna,"Muradpur, Patna - BSPCB",20-03-2025,25.619651,85.147382,SO2,6,10,8
India,Chhattisgarh,Chhal,"Nawapara SECL Colony, Chhal - CECB",28-12-2025,22.118125,83.140608,CO,15,50,45
India,Chhattisgarh,Korba,"Rampur, Korba - CECB",15-08-2024,22.368195,82.746431,NO2,24,42,29
India,Chhattisgarh,Korba,"Rampur, Korba - CECB",18-07-2024,22.368195,82.746431,SO2,17,30,20
India,Chhattisgarh,Korba,"Urja Nagar, Korba - CECB",07-05-2025,22.348441,82.549611,NH3,1,12,5
India,Chhattisgarh,Korba,"Urja Nagar, Korba - CECB",14-02-2024,22.348441,82.549611,CO,24,119,107
India,Chhattisgarh,Kunjemura,"OP Jindal School, Kunjemura - CECB",06-06-2025,22.12665,83.483212,NO2,27,102,36
India,Chhattisgarh,Kunjemura,"OP Jindal School, Kunjemura - CECB",28-02-2025,22.12665,83.483212,NH3,2,2,2
India,Chhattisgarh,Milupara,"Govt. Higher Secondary School, Milupara - CECB",16-08-2024,22.1910172,83.5197009,PM10,66,147,102
India,Delhi,Delhi,"Dr. Karni Singh Shooting Range, Delhi - DPCC",09-06-2024,28.498571,77.26484,NO2,12,99,59
India,Delhi,Delhi,"Dr. Karni Singh Shooting Range, Delhi - DPCC",09-06-2024,28.498571,77.26484,SO2,14,53,28
India,Delhi,Delhi,"Dr. Karni Singh Shooting Range, Delhi - DPCC",02-08-2024,28.498571,77.26484,CO,30,100,38
India,Delhi,Delhi,"Dwarka-Sector 8, Delhi - DPCC ",28-12-2024,28.5710274,77.0719006,NO2,29,60,48
India,Delhi,Delhi,"IGI Airport (T3), Delhi - IMD",16-02-2024,28.5627763,77.1180053,PM10,96,271,134
India,Delhi,Delhi,"IHBAS, Dilshad Garden, Delhi - CPCB",17-12-2025,28.6811736,77.3025234,PM10,80,164,115
India,Delhi,Delhi,"IHBAS, Dilshad Garden, Delhi - CPCB",19-08-2025,28.6811736,77.3025234,NH3,10,13,11
India,Delhi,Delhi,"Alipur, Delhi - DPCC",07-01-2025,28.815329,77.15301,NH3,10,12,11
India,Delhi,Delhi,"Anand Vihar, Delhi - DPCC",15-04-2025,28.647622,77.315809,CO,71,118,98
India,Delhi,Delhi,"Ashok Vihar, Delhi - DPCC",18-11-2025,28.695381,77.181665,PM2.5,47,323,130
India,Delhi,Delhi,"Ashok Vihar, Delhi - DPCC",15-12-2025,28.695381,77.181665,NO2,25,92,49
India,Delhi,Delhi,"Ashok Vihar, Delhi - DPCC",11-11-2025,28.695381,77.181665,NH3,7,10,9
India,Delhi,Delhi,"Ashok Vihar, Delhi - DPCC",05-10-2025,28.695381,77.181665,OZONE,51,248,167
India,Chhattisgarh,Raipur,"AIIMS, Raipur - CECB",01-01-2024,21.258815,81.578979,PM10,27,55,39
India,Chhattisgarh,Raipur,"AIIMS, Raipur - CECB",05-03-2025,21.258815,81.578979,OZONE,4,35,5
India,Chhattisgarh,Raipur,"Bhatagaon New ISBT, Raipur - CECB",23-02-2025,21.219665,81.630094,NH3,2,2,2
India,Chhattisgarh,Raipur,"Bhatagaon New ISBT, Raipur - CECB",17-01-2024,21.219665,81.630094,CO,22,36,25
India,Chhattisgarh,Raipur,"Krishak Nagar, Raipur - CECB",13-05-2025,21.237755,81.705301,NO2,16,29,22
India,Chhattisgarh,Raipur,"Siltara Phase-II, Raipur - CECB",16-05-2024,21.371751,81.664929,PM10,50,149,84
India,Chhattisgarh,Raipur,"Siltara Phase-II, Raipur - CECB",13-06-2025,21.371751,81.664929,NH3,3,3,3
India,Chhattisgarh,Tumidih,"OP Jindal Industrial Park, Tumidih - CECB",01-04-2025,22.06631475,83.33820077,OZONE,4,69,14
India,Delhi,Delhi,"ITO, Delhi - CPCB",22-05-2024,28.628624,77.24106,CO,4,42,26
India,Delhi,Delhi,"Jahangirpuri, Delhi - DPCC",21-02-2024,28.73282,77.170633,SO2,15,71,36
India,Delhi,Delhi,"Jawaharlal Nehru Stadium, Delhi - DPCC",24-08-2024,28.58028,77.233829,NO2,43,198,124
India,Delhi,Delhi,"Bawana, Delhi - DPCC",27-09-2025,28.7762,77.051074,SO2,8,91,27
India,Delhi,Delhi,"Burari Crossing, Delhi - IMD",15-03-2024,28.7256504,77.2011573,PM2.5,9,262,84
India,Delhi,Delhi,"Burari Crossing, Delhi - IMD",12-06-2025,28.7256504,77.2011573,CO,43,62,44
India,Delhi,Delhi,"CRRI Mathura Road, Delhi - IMD",26-12-2025,28.5512005,77.2735737,CO,22,105,61
India,Delhi,Delhi,"Chandni Chowk, Delhi - IITM",17-07-2025,28.656756,77.227234,NH3,NA,NA,NA
India,Delhi,Delhi,"Chandni Chowk, Delhi - IITM",24-10-2025,28.656756,77.227234,SO2,16,39,26
India,Delhi,Delhi,"Burari Crossing, Delhi - IMD",16-09-2024,28.7256504,77.2011573,OZONE,9,67,23
India,Delhi,Delhi,"Okhla Phase-2, Delhi - DPCC",01-07-2024,28.530785,77.271255,NO2,33,123,72
India,Delhi,Delhi,"Okhla Phase-2, Delhi - DPCC",02-05-2025,28.530785,77.271255,OZONE,9,301,178
India,Delhi,Delhi,"Patparganj, Delhi - DPCC",16-06-2024,28.623763,77.287209,SO2,2,9,5
India,Delhi,Delhi,"Patparganj, Delhi - DPCC",19-10-2025,28.623763,77.287209,OZONE,10,266,52
India,Delhi,Delhi,"Punjabi Bagh, Delhi - DPCC",07-05-2024,28.674045,77.131023,PM10,101,262,148
India,Delhi,Delhi,"Punjabi Bagh, Delhi - DPCC",13-01-2024,28.674045,77.131023,NH3,6,9,7
India,Delhi,Delhi,"Punjabi Bagh, Delhi - DPCC",13-09-2025,28.674045,77.131023,OZONE,13,336,149
India,Delhi,Delhi,"Narela, Delhi - DPCC",23-04-2025,28.822836,77.101981,PM10,94,468,168
India,Delhi,Delhi,"Nehru Nagar, Delhi - DPCC",08-01-2024,28.56789,77.250515,SO2,2,41,20
India,Delhi,Delhi,"North Campus, DU, Delhi - IMD",09-06-2025,28.6573814,77.1585447,CO,104,116,111
India,Delhi,Delhi,"North Campus, DU, Delhi - IMD",01-06-2024,28.6573814,77.1585447,OZONE,21,192,58
India,Delhi,Delhi,"Pusa, Delhi - DPCC",18-06-2024,28.639652,77.146275,CO,6,73,22
India,Delhi,Delhi,"Pusa, Delhi - IMD",23-07-2024,28.63611,77.173332,PM2.5,NA,NA,NA
India,Delhi,Delhi,"Mundka, Delhi - DPCC",03-12-2024,28.684678,77.076574,PM10,130,360,237
India,Delhi,Delhi,"Mundka, Delhi - DPCC",25-03-2024,28.684678,77.076574,CO,10,37,32
India,Delhi,Delhi,"Mandir Marg, Delhi - DPCC",03-05-2025,28.636429,77.201067,NO2,139,188,153
India,Delhi,Delhi,"Mandir Marg, Delhi - DPCC",16-06-2024,28.636429,77.201067,SO2,3,25,12
India,Delhi,Delhi,"Pusa, Delhi - DPCC",01-09-2025,28.639652,77.146275,PM10,102,266,159
India,Delhi,Delhi,"Pusa, Delhi - DPCC",21-12-2024,28.639652,77.146275,NH3,3,14,10
India,Delhi,Delhi,"Lodhi Road, Delhi - IMD",27-11-2024,28.5918245,77.2273074,OZONE,62,262,74
India,Delhi,Delhi,"NSIT Dwarka, Delhi - CPCB",16-12-2025,28.60909,77.0325413,OZONE,16,59,27
India,Gujarat,Gandhinagar,"Sector-10, Gandhinagar - GPCB",25-10-2025,23.221714,72.654328,SO2,5,6,6
India,Gujarat,Nandesari,"GIDC, Nandesari - Nandesari Ind. Association",04-04-2024,22.410802,73.097923,SO2,NA,NA,NA
India,Gujarat,Surat,"Science Center, Surat - SMC",28-03-2024,21.170046,72.795405,PM2.5,2,90,28
India,Gujarat,Surat,"Science Center, Surat - SMC",21-06-2024,21.170046,72.795405,PM10,12,148,46
India,Gujarat,Surat,"Science Center, Surat - SMC",22-04-2025,21.170046,72.795405,NO2,13,22,15
India,Gujarat,Vatva,"Phase-4 GIDC, Vatva - GPCB",24-07-2024,22.969611,72.6435,SO2,14,27,20
India,Gujarat,Vatva,"Phase-4 GIDC, Vatva - GPCB",21-04-2024,22.969611,72.6435,CO,58,102,80
India,Gujarat,Ahmedabad,"Sardar Vallabhbhai Patel Stadium, Ahmedabad - IITM",04-07-2024,23.04307,72.562968,OZONE,8,112,47
India,Gujarat,Ankleshwar,"GIDC, Ankleshwar - GPCB",03-10-2024,21.613267,73.010555,SO2,44,45,45
India,Gujarat,Gandhinagar,"GIFT City, Gandhinagar - IITM",12-06-2024,23.163798,72.677768,NH3,6,25,13
India,Gujarat,Gandhinagar,"IIPHG Lekawada, Gandhinagar - IITM",13-12-2024,23.243639,72.68994,NO2,24,129,79
India,Gujarat,Ahmedabad,"Rakhial, Ahmedabad - IITM",06-05-2025,23.016834,72.625775,SO2,18,121,84
India,Gujarat,Ahmedabad,"SVPI Airport Hansol, Ahmedabad - IITM",07-10-2024,23.076793,72.627874,PM10,54,223,96
India,Gujarat,Ahmedabad,"SVPI Airport Hansol, Ahmedabad - IITM",05-11-2024,23.076793,72.627874,NO2,8,74,34
India,Gujarat,Ahmedabad,"SVPI Airport Hansol, Ahmedabad - IITM",15-03-2024,23.076793,72.627874,OZONE,1,63,12
India,Gujarat,Ahmedabad,"Sardar Vallabhbhai Patel Stadium, Ahmedabad - IITM",21-11-2024,23.04307,72.562968,SO2,11,102,38
India,Gujarat,Ahmedabad,"Chandkheda, Ahmedabad - IITM",10-06-2025,23.107969,72.574648,OZONE,2,115,25
India,Gujarat,Ahmedabad,"Gyaspur, Ahmedabad - IITM",13-11-2024,22.977134,72.553024,NO2,8,100,44
India,Gujarat,Ahmedabad,"Raikhad, Ahmedabad - IITM",25-05-2025,23.020509,72.579261,SO2,13,58,23
India,Gujarat,Ahmedabad,"Raikhad, Ahmedabad - IITM",28-06-2025,23.020509,72.579261,OZONE,1,74,4
India,Gujarat,Ahmedabad,"Rakhial, Ahmedabad - IITM",09-07-2025,23.016834,72.625775,NO2,1,10,5
India,Delhi,Delhi,"Pusa, Delhi - IMD",17-07-2025,28.63611,77.173332,NO2,NA,NA,NA
India,Delhi,Delhi,"R K Puram, Delhi - DPCC",01-04-2024,28.563262,77.186937,PM10,103,437,194
India,Delhi,Delhi,"R K Puram, Delhi - DPCC",01-08-2024,28.563262,77.186937,SO2,15,64,34
India,Delhi,Delhi,"Vivek Vihar, Delhi - DPCC",09-07-2025,28.672342,77.31526,NO2,20,57,34
India,Delhi,Delhi,"Wazirpur, Delhi - DPCC",04-08-2024,28.699793,77.165453,NO2,59,204,96
India,Delhi,Delhi,"Rohini, Delhi - DPCC",04-05-2025,28.732528,77.11992,PM10,108,366,176
India,Delhi,Delhi,"Rohini, Delhi - DPCC",28-12-2024,28.732528,77.11992,NO2,3,78,22
India,Haryana,Panchgaon,"Amity University, Panchgaon - IITM",26-02-2024,28.3153,76.9143,NH3,6,10,8
India,Haryana,Panchgaon,"Amity University, Panchgaon - IITM",14-07-2024,28.3153,76.9143,CO,4,64,49
India,Delhi,Delhi,"Shadipur, Delhi - CPCB",02-06-2025,28.6514781,77.1473105,NH3,4,12,6
India,Karnataka,Bengaluru,"Kasturi Nagar, Bengaluru - KSPCB",04-07-2024,13.003872,77.664217,OZONE,28,29,28
India,Karnataka,Bengaluru,"Peenya, Bengaluru - CPCB",04-10-2025,13.0270199,77.494094,PM2.5,2,62,31
India,Karnataka,Bengaluru,"RVCE-Mailasandra, Bengaluru - KSPCB",01-01-2025,12.921418,77.502466,PM2.5,55,57,56
India,Karnataka,Bengaluru,"RVCE-Mailasandra, Bengaluru - KSPCB",02-11-2024,12.921418,77.502466,NO2,18,21,20
India,Karnataka,Bengaluru,"RVCE-Mailasandra, Bengaluru - KSPCB",11-06-2025,12.921418,77.502466,NH3,3,4,4
India,Karnataka,Bengaluru,"RVCE-Mailasandra, Bengaluru - KSPCB",24-01-2025,12.921418,77.502466,SO2,5,6,6
India,Karnataka,Bengaluru,"RVCE-Mailasandra, Bengaluru - KSPCB",25-12-2025,12.921418,77.502466,OZONE,18,24,19
India,Karnataka,Bengaluru,"Sanegurava Halli, Bengaluru - KSPCB",02-10-2025,12.990328,77.5431385,PM10,38,40,38
India,Karnataka,Bengaluru,"Sanegurava Halli, Bengaluru - KSPCB",01-04-2024,12.990328,77.5431385,CO,25,61,38
India,Karnataka,Bengaluru,"Shivapura_Peenya, Bengaluru - KSPCB",03-07-2025,13.0246342,77.5080115,NH3,2,2,2
India,Karnataka,Bengaluru,"Hebbal, Bengaluru - KSPCB",03-08-2025,13.029152,77.585901,OZONE,6,37,10
India,Karnataka,Bengaluru,"Hombegowda Nagar, Bengaluru - KSPCB",05-12-2024,12.938539,77.5901,SO2,8,16,11
India,Karnataka,Bengaluru,"Jayanagar 5th Block, Bengaluru - KSPCB",02-05-2025,12.920984,77.584908,PM2.5,18,46,29
India,Karnataka,Bengaluru,"Jayanagar 5th Block, Bengaluru - KSPCB",07-06-2024,12.920984,77.584908,CO,1,22,5
India,Karnataka,Belgaum,"Ramteerth Nagar, Belgaum - KSPCB",01-05-2024,15.888653,74.541751,OZONE,19,20,20
India,Karnataka,Bengaluru,"BTM Layout, Bengaluru - CPCB",27-02-2025,12.9135218,77.5950804,PM10,22,115,57
India,Karnataka,Bengaluru,"BTM Layout, Bengaluru - CPCB",04-06-2024,12.9135218,77.5950804,NO2,36,38,37
India,Karnataka,Bengaluru,"BTM Layout, Bengaluru - CPCB",17-05-2025,12.9135218,77.5950804,CO,18,36,24
India,Karnataka,Bengaluru,"Bapuji Nagar, Bengaluru - KSPCB",16-12-2024,12.951913,77.539784,NO2,5,13,8
India,Karnataka,Bengaluru,"Bapuji Nagar, Bengaluru - KSPCB",14-11-2024,12.951913,77.539784,NH3,1,2,1
India,Karnataka,Bengaluru,"Kasturi Nagar, Bengaluru - KSPCB",26-03-2024,13.003872,77.664217,PM2.5,37,41,38
India,Karnataka,Bengaluru,"Bapuji Nagar, Bengaluru - KSPCB",19-11-2024,12.951913,77.539784,OZONE,26,74,45
India,Jammu_and_Kashmir,Srinagar,"Rajbagh, Srinagar - JKSPCB",24-10-2025,34.066206,74.81982,SO2,3,9,4
India,Karnataka,Belgaum,"Ramteerth Nagar, Belgaum - KSPCB",03-10-2024,15.888653,74.541751,NH3,2,4,3
India,Karnataka,Chamarajanagar,"Urban, Chamarajanagar - KSPCB",04-05-2025,11.55358,76.55521,SO2,3,8,4
India,Karnataka,Mangalore,"Kadri, Mangalore - KSPCB",06-11-2025,12.88925,74.853,NO2,NA,NA,NA
India,Karnataka,Mangalore,"Kadri, Mangalore - KSPCB",07-03-2024,12.88925,74.853,SO2,NA,NA,NA
India,Karnataka,Mangalore,"Kadri, Mangalore - KSPCB",17-08-2024,12.88925,74.853,CO,30,69,32
India,Karnataka,Mangalore,"Kadri, Mangalore - KSPCB",07-02-2024,12.88925,74.853,OZONE,28,34,31
India,Karnataka,Mysuru,"Hebbal 1st Stage, Mysuru - KSPCB",12-08-2025,12.21041,76.37376,PM2.5,14,44,24
India,Karnataka,Mysuru,"Hebbal 1st Stage, Mysuru - KSPCB",03-11-2024,12.21041,76.37376,CO,4,28,16
India,Karnataka,Ramanagara,"Vijay Nagar, Ramanagara - KSPCB",28-08-2024,12.733409,77.298051,PM2.5,16,35,24
India,Karnataka,Ramanagara,"Vijay Nagar, Ramanagara - KSPCB",07-02-2025,12.733409,77.298051,PM10,15,52,29
India,Karnataka,Ramanagara,"Vijay Nagar, Ramanagara - KSPCB",11-02-2025,12.733409,77.298051,SO2,5,9,6
India,Karnataka,Shivamogga,"Vinoba Nagara, Shivamogga - KSPCB",07-09-2025,13.94,75.555917,SO2,4,6,4
India,Karnataka,Tumakuru,"Thimmalapura, Tumakuru - KSPCB",02-04-2025,13.377516,77.099072,PM2.5,17,90,38
India,Karnataka,Tumakuru,"Thimmalapura, Tumakuru - KSPCB",02-05-2025,13.377516,77.099072,NO2,18,19,18
India,Karnataka,Tumakuru,"Thimmalapura, Tumakuru - KSPCB",08-04-2024,13.377516,77.099072,SO2,5,8,6
India,Karnataka,Hubballi,"Lingaraj Nagar, Hubballi - KSPCB",16-03-2024,15.3714823,75.1160168,NO2,7,13,12
India,Karnataka,Hubballi,"Lingaraj Nagar, Hubballi - KSPCB",04-06-2025,15.3714823,75.1160168,NH3,1,3,3
India,Karnataka,Kalaburagi,"Lal Bahadur Shastri Nagar, Kalaburagi - KSPCB",23-09-2024,17.321993,76.822628,NH3,3,5,4
India,Karnataka,Chikkaballapur,"Chikkaballapur Rural, Chikkaballapur - KSPCB",01-04-2024,13.428828,77.731418,PM10,8,41,24
India,Karnataka,Chikkaballapur,"Chikkaballapur Rural, Chikkaballapur - KSPCB",01-05-2024,13.428828,77.731418,NH3,1,5,4
India,Karnataka,Chikkaballapur,"Chikkaballapur Rural, Chikkaballapur - KSPCB",02-11-2024,13.428828,77.731418,SO2,13,23,20
India,Karnataka,Koppal,"Diwator Nagar, Koppal - KSPCB",21-11-2025,15.34763,76.181767,CO,23,38,34
India,Karnataka,Madikeri,"Stuart Hill, Madikeri - KSPCB",23-11-2025,12.415911,75.73505,PM10,6,39,18
India,Karnataka,Chikkamagaluru,"Kalyana Nagara, Chikkamagaluru - KSPCB",22-05-2025,13.328028,75.797056,PM10,21,38,32
India,Karnataka,Chikkamagaluru,"Kalyana Nagara, Chikkamagaluru - KSPCB",26-04-2024,13.328028,75.797056,NH3,2,3,3
India,Karnataka,Kalaburagi,"Mahatma Basaveswar Colony, Kalaburgi - KSPCB",08-02-2025,17.336318,76.847397,NH3,2,3,2
India,Karnataka,Gadag,"Panchal Nagar, Gadag - KSPCB",23-08-2025,15.411456,75.638133,NH3,NA,NA,NA
India,Karnataka,Dharwad,"Kalabhavan, Dharwad - KSPCB",03-09-2025,15.459706,75.008381,NH3,4,6,5
India,Madhya Pradesh,Indore,"Chhoti Gwaltoli, Indore - MPPCB",01-08-2024,22.431,75.5213,SO2,5,46,18
India,Madhya Pradesh,Indore,"Residency Area, Indore - IMC",28-08-2024,22.7084,75.8815,PM2.5,NA,NA,NA
India,Madhya Pradesh,Indore,"Residency Area, Indore - IMC",21-01-2025,22.7084,75.8815,CO,16,32,24
India,Madhya Pradesh,Indore,"Residency Area, Indore - IMC",12-01-2024,22.7084,75.8815,OZONE,10,21,11
India,Madhya Pradesh,Jabalpur,"Govindh Bhavan Colony, Jabalpur - JMC",24-04-2024,23.163174,79.973061,PM10,NA,NA,NA
India,Kerala,Thiruvananthapuram,"Plammoodu, Thiruvananthapuram - Kerala PCB",27-05-2024,8.5149093,76.9435879,CO,10,40,13
India,Kerala,Thrissur,"Corporation Ground, Thrissur - Kerala PCB",26-05-2024,10.5324,76.2159,PM10,56,69,61
India,Kerala,Thrissur,"Corporation Ground, Thrissur - Kerala PCB",12-11-2025,10.5324,76.2159,CO,22,30,27
India,Madhya Pradesh,Bhopal,"Idgah Hills, Bhopal - MPPCB",14-12-2025,23.264759,77.381568,OZONE,67,125,75
India,Madhya Pradesh,Bhopal,"T T Nagar, Bhopal - MPPCB",27-09-2024,23.233584,77.400574,SO2,17,29,23
India,Madhya Pradesh,Bhopal,"T T Nagar, Bhopal - MPPCB",20-11-2024,23.233584,77.400574,CO,36,62,48
India,Madhya Pradesh,Dewas,"Bhopal Chauraha, Dewas - MPPCB",22-05-2024,22.9682591,76.064118,NH3,6,10,8
India,Madhya Pradesh,Dewas,"Bhopal Chauraha, Dewas - MPPCB",17-02-2025,22.9682591,76.064118,CO,13,72,30
India,Madhya Pradesh,Jabalpur,"Marhatal, Jabalpur - MPPCB",01-09-2024,23.168606,79.932247,NO2,24,107,45
India,Madhya Pradesh,Jabalpur,"Suhagi, Jabalpur - JMC",21-01-2025,23.218135,79.95777,CO,24,120,42
India,Madhya Pradesh,Katni,"Gole Bazar, Katni - MPPCB",03-04-2024,23.50016,80.23284,PM2.5,31,311,136
India,Madhya Pradesh,Gwalior,"Maharaj Bada, Gwalior - MPPCB",26-09-2025,26.200388,78.147714,SO2,9,32,22
India,Madhya Pradesh,Gwalior,"Maharaj Bada, Gwalior - MPPCB",28-03-2025,26.200388,78.147714,CO,9,129,35
India,Madhya Pradesh,Indore,"Airport Area, Indore - IMC",06-07-2024,22.7289,75.8076,PM2.5,38,105,57
India,Madhya Pradesh,Gwalior,"City Center, Gwalior - MPPCB",28-04-2025,26.203442,78.193251,SO2,11,27,19
India,Madhya Pradesh,Gwalior,"Deen Dayal Nagar, Gwalior - MPPCB",13-09-2024,26.259242,78.216432,PM10,51,463,170
India,Madhya Pradesh,Gwalior,"Deen Dayal Nagar, Gwalior - MPPCB",25-09-2025,26.259242,78.216432,OZONE,15,130,36
India,Karnataka,Yadgir,"Collector Office, Yadgir - KSPCB",16-02-2024,16.7602,77.1428,NO2,33,70,45
India,Karnataka,Yadgir,"Collector Office, Yadgir - KSPCB",15-07-2025,16.7602,77.1428,OZONE,18,19,18
India,Madhya Pradesh,Katni,"Gole Bazar, Katni - MPPCB",25-12-2025,23.50016,80.23284,NH3,2,4,3
India,Kerala,Kollam,"Polayathode, Kollam - Kerala PCB",21-11-2024,8.8787,76.6073,NO2,8,10,9
India,Madhya Pradesh,Sagar,"Civil Lines, Sagar - MPPCB",03-03-2025,23.838586,78.759431,CO,44,107,60
India,Madhya Pradesh,Sagar,"Civil Lines, Sagar - MPPCB",08-05-2024,23.838586,78.759431,OZONE,4,74,31
India,Madhya Pradesh,Sagar,"Deen Dayal Nagar, Sagar - MPPCB",22-01-2024,23.8640158,78.80289321,PM2.5,25,195,79
India,Madhya Pradesh,Sagar,"Deen Dayal Nagar, Sagar - MPPCB",17-06-2025,23.8640158,78.80289321,PM10,1,240,96
India,Madhya Pradesh,Satna,"Bandhavgar Colony, Satna - Birla Cement",28-11-2024,24.58434363,80.8549414,PM2.5,41,44,42
India,Madhya Pradesh,Satna,"Bandhavgar Colony, Satna - Birla Cement",21-12-2024,24.58434363,80.8549414,PM10,55,56,55
India,Madhya Pradesh,Satna,"Bandhavgar Colony, Satna - Birla Cement",19-09-2024,24.58434363,80.8549414,NO2,12,12,12
India,Madhya Pradesh,Singrauli,"Suryakiran Bhawan NCL, Singrauli - MPPCB",16-12-2025,24.10897,82.64558,PM2.5,37,304,129
India,Maharashtra,Akola,"Ramdaspeth, Akola - MPCB",26-09-2024,20.719516,77.000253,NH3,7,14,9
India,Maharashtra,Amravati,"Shivneri Colony, Amravati - MPCB",01-07-2025,20.9402359,77.7895248,PM2.5,43,74,59
India,Maharashtra,Amravati,"Shivneri Colony, Amravati - MPCB",25-03-2025,20.9402359,77.7895248,OZONE,13,89,51
India,Maharashtra,Amravati,"Shri Shivaji Science College, Amaravati - MPCB",23-11-2025,20.939198,77.765701,CO,36,96,45
India,Maharashtra,Aurangabad,"MIDC Chilkalthana, Aurangabad - MPCB",07-12-2024,19.87562,75.38731,PM10,25,114,77
India,Madhya Pradesh,Pithampur,"Sector-2 Industrial Area, Pithampur - MPPCB",22-02-2024,22.624758,75.675238,NO2,5,28,12
India,Madhya Pradesh,Pithampur,"Sector-2 Industrial Area, Pithampur - MPPCB",11-04-2024,22.624758,75.675238,NH3,4,5,4
India,Madhya Pradesh,Pithampur,"Sector-2 Industrial Area, Pithampur - MPPCB",25-07-2025,22.624758,75.675238,OZONE,79,184,112
India,Madhya Pradesh,Ratlam,"Shasthri Nagar, Ratlam - IPCA Lab",20-01-2024,23.331731,75.045981,PM10,79,165,117
India,Madhya Pradesh,Ratlam,"Shasthri Nagar, Ratlam - IPCA Lab",21-03-2024,23.331731,75.045981,NO2,41,48,42
India,Madhya Pradesh,Sagar,"Civil Lines, Sagar - MPPCB",23-10-2024,23.838586,78.759431,NO2,8,69,21
India,Maharashtra,Ahmednagar,"Tarakpur, Ahmednagar - MPCB",26-12-2025,19.10122,74.73339,NH3,7,13,8
India,Maharashtra,Ahmednagar,"Tarakpur, Ahmednagar - MPCB",10-11-2025,19.10122,74.73339,SO2,1,13,5
India,Maharashtra,Ahmednagar,"Tarakpur, Ahmednagar - MPCB",26-03-2025,19.10122,74.73339,OZONE,10,118,38
India,Maharashtra,Akola,"Ramdaspeth, Akola - MPCB",20-11-2025,20.719516,77.000253,PM2.5,37,90,61
India,Maharashtra,Akola,"Ramdaspeth, Akola - MPCB",22-06-2025,20.719516,77.000253,PM10,48,125,80
India,Madhya Pradesh,Katni,"Gole Bazar, Katni - MPPCB",12-02-2024,23.50016,80.23284,SO2,17,85,38
India,Madhya Pradesh,Mandideep,"Sector-D Industrial Area, Mandideep - MPPCB",10-07-2025,23.10844,77.511428,NO2,30,149,70
India,Madhya Pradesh,Mandideep,"Sector-D Industrial Area, Mandideep - MPPCB",04-02-2025,23.10844,77.511428,CO,6,122,55
India,Madhya Pradesh,Singrauli,"Suryakiran Bhawan NCL, Singrauli - MPPCB",04-10-2024,24.10897,82.64558,SO2,24,51,38
India,Madhya Pradesh,Singrauli,"Suryakiran Bhawan NCL, Singrauli - MPPCB",24-10-2025,24.10897,82.64558,CO,37,122,107
India,Maharashtra,Ahmednagar,"Tarakpur, Ahmednagar - MPCB",28-03-2025,19.10122,74.73339,PM2.5,67,193,120
India,Maharashtra,Ahmednagar,"Tarakpur, Ahmednagar - MPCB",27-03-2024,19.10122,74.73339,PM10,80,186,113
India,Madhya Pradesh,Ujjain,"Mahakaleshwar Temple, Ujjain - MPPCB",13-10-2025,23.182719,75.768218,NH3,NA,NA,NA
India,Maharashtra,Ahmednagar,"Tarakpur, Ahmednagar - MPCB",07-02-2024,19.10122,74.73339,NO2,27,131,62
India,Maharashtra,Chandrapur,"Chauhan Colony, Chandrapur - MPCB",06-05-2025,19.9629,79.298714,SO2,18,24,20
India,Maharashtra,Chandrapur,"MIDC Khutala, Chandrapur - MPCB",20-02-2024,19.9775302,79.2337086,NH3,1,1,1
India,Maharashtra,Dhule,"Deopur, Dhule - MPCB",11-01-2024,20.918946,74.776388,NH3,11,20,14
India,Maharashtra,Dhule,"Deopur, Dhule - MPCB",23-09-2025,20.918946,74.776388,OZONE,10,81,30
India,Maharashtra,Jalgaon,"Prabhat Colony, Jalgaon - MPCB",03-04-2025,21.001264,75.565602,PM10,40,111,74
India,Maharashtra,Aurangabad,"Rachnakar Colony, Aurangabad - MPCB",16-01-2024,19.863756,75.321188,OZONE,13,116,25
India,Maharashtra,Badlapur,"Katrap, Badlapur - MPCB",19-01-2025,19.16485,73.23409,PM2.5,60,159,94
India,Maharashtra,Badlapur,"Katrap, Badlapur - MPCB",13-01-2025,19.16485,73.23409,NH3,1,21,6
India,Maharashtra,Belapur,"CBD Belapur, Belapur - MPCB",04-04-2024,19.0243902,73.0406721,OZONE,9,105,24
India,Maharashtra,Bhiwandi,"Gokul Nagar, Bhiwandi - MPCB",04-05-2024,19.309073,73.057223,CO,14,54,42
India,Maharashtra,Bhiwandi,"Gokul Nagar, Bhiwandi - MPCB",08-05-2024,19.309073,73.057223,OZONE,13,118,25
India,Maharashtra,Kalyan,"Khadakpada, Kalyan - MPCB",25-10-2025,19.25292,73.142019,PM10,94,140,111
India,Maharashtra,Kalyan,"Khadakpada, Kalyan - MPCB",23-09-2024,19.25292,73.142019,NO2,4,10,6
India,Maharashtra,Aurangabad,"Rachnakar Colony, Aurangabad - MPCB",22-06-2025,19.863756,75.321188,PM10,63,133,100
India,Maharashtra,Aurangabad,"MIDC Chilkalthana, Aurangabad - MPCB",20-03-2025,19.87562,75.38731,CO,8,114,106
India,Maharashtra,Aurangabad,"More Chowk Waluj, Aurangabad - MPCB",16-04-2024,19.8389439,75.244448,NH3,9,10,9
India,Maharashtra,Belapur,"CBD Belapur, Belapur - MPCB",21-06-2025,19.0243902,73.0406721,CO,15,58,33
India,Maharashtra,Boisar,"Khaira, Boisar - MPCB",19-01-2025,19.786089,72.757971,CO,16,37,25
India,Maharashtra,Mahad,"Kamble Tarf Birwadi, Mahad - MPCB",12-03-2024,18.1023399,73.4783687,PM10,85,136,112
India,Maharashtra,Mahad,"Kamble Tarf Birwadi, Mahad - MPCB",08-01-2024,18.1023399,73.4783687,NO2,7,36,22
India,Maharashtra,Malegaon,"Mahesh Nagar, Malegaon - MPCB",20-07-2024,20.555712,74.529236,NO2,10,61,23
India,Maharashtra,Malegaon,"Mahesh Nagar, Malegaon - MPCB",27-05-2024,20.555712,74.529236,NH3,2,3,2
India,Maharashtra,Mumbai,"Bandra Kurla Complex, Mumbai - MPCB",15-07-2024,19.065931,72.862131,CO,20,68,56
India,Maharashtra,Mumbai,"Deonar, Mumbai - IITM",16-07-2024,19.04946,72.923,PM10,102,493,249
India,Maharashtra,Mumbai,"Deonar, Mumbai - IITM",20-09-2024,19.04946,72.923,NO2,17,73,42
India,Maharashtra,Mumbai,"Ghatkopar, Mumbai - BMC",25-10-2024,19.083694,72.920967,PM2.5,39,151,75
India,Maharashtra,Mumbai,"Ghatkopar, Mumbai - BMC",27-01-2025,19.083694,72.920967,PM10,60,302,128
India,Maharashtra,Mumbai,"Ghatkopar, Mumbai - BMC",10-11-2025,19.083694,72.920967,CO,7,41,30
India,Maharashtra,Mumbai,"Chakala-Andheri East, Mumbai - IITM",20-10-2025,19.11074,72.86084,PM10,88,163,122
India,Maharashtra,Mumbai,"Chakala-Andheri East, Mumbai - IITM",04-01-2025,19.11074,72.86084,CO,2,2,2
India,Maharashtra,Mumbai,"Chakala-Andheri East, Mumbai - IITM",19-09-2024,19.11074,72.86084,OZONE,2,106,29
India,Maharashtra,Mumbai,"Chembur, Mumbai - MPCB",16-08-2025,19.0364585,72.8954371,OZONE,5,84,30
India,Maharashtra,Mumbai,"Borivali East, Mumbai - IITM",04-02-2024,19.23241,72.86895,NH3,5,8,6
India,Maharashtra,Mumbai,"Borivali East, Mumbai - MPCB",15-11-2025,19.2243333,72.8658113,NO2,11,45,24
India,Maharashtra,Mumbai,"Chakala-Andheri East, Mumbai - IITM",13-07-2025,19.11074,72.86084,PM2.5,49,107,76
India,Maharashtra,Mumbai,"Kandivali East, Mumbai - MPCB",19-11-2024,19.2058,72.8682,NO2,1,1,1
India,Maharashtra,Mumbai,"Kherwadi_Bandra East, Mumbai - MPCB",12-01-2025,19.0632143,72.8456324,PM2.5,NA,NA,NA
India,Maharashtra,Mumbai,"Kherwadi_Bandra East, Mumbai - MPCB",22-11-2024,19.0632143,72.8456324,CO,6,40,35
India,Maharashtra,Latur,"Sawe Wadi, Latur - MPCB",21-03-2025,18.39963,76.57452,PM10,45,316,99
India,Maharashtra,Latur,"Sawe Wadi, Latur - MPCB",02-08-2024,18.39963,76.57452,CO,4,120,22
India,Maharashtra,Kolhapur,"Sinchan Bhavan, Kolhapur - MPCB",28-10-2025,16.7143745,74.2426398,PM10,30,66,48
India,Maharashtra,Kalyan,"Pimpleshwar Mandir, Kalyan - MPCB",18-06-2025,19.192056,72.9585188,SO2,1,65,10
India,Maharashtra,Kalyan,"Pimpleshwar Mandir, Kalyan - MPCB",28-10-2024,19.192056,72.9585188,PM2.5,NA,NA,NA
India,Maharashtra,Mumbai,"Siddharth Nagar-Worli, Mumbai - IITM",09-02-2025,19.000083,72.813993,CO,56,72,69
India,Maharashtra,Mumbai,"Siddharth Nagar-Worli, Mumbai - IITM",03-05-2025,19.000083,72.813993,OZONE,28,89,49
India,Maharashtra,Mumbai,"Sion, Mumbai - MPCB",11-05-2025,19.047,72.8746,SO2,7,14,9
India,Maharashtra,Mumbai,"Vasai West, Mumbai - MPCB",14-11-2025,19.3832,72.8204,NO2,46,85,58
India,Maharashtra,Mumbai,"Worli, Mumbai - MPCB",07-02-2024,18.9936162,72.8128113,PM10,NA,NA,NA
